{
"type": "FeatureCollection",
"name": "goa_village_centroids",
"crs": { "type": "name", "properties": { "name": "urn:ogc:def:crs:OGC:1.3:CRS84" } },
"features": [
{ "type": "Feature", "properties": { "OBJECTID": 1, "TYPE": "Village", "SUB_DIST": "Pernem", "STATE": "Goa", "CEN_2001": "3001000100001300", "NAME": "Torxem", "DISTRICT": "North Goa", "ORIG_FID": 1 }, "geometry": { "type": "Point", "coordinates": [ 73.856940136578089, 15.778550483917741 ] } },
{ "type": "Feature", "properties": { "OBJECTID": 2, "TYPE": "Village", "SUB_DIST": "Pernem", "STATE": "Goa", "CEN_2001": "3001000100001400", "NAME": "Mopa", "DISTRICT": "North Goa", "ORIG_FID": 2 }, "geometry": { "type": "Point", "coordinates": [ 73.862302218372747, 15.753151444883315 ] } },
{ "type": "Feature", "properties": { "OBJECTID": 3, "TYPE": "Village", "SUB_DIST": "Pernem", "STATE": "Goa", "CEN_2001": "3001000100001200", "NAME": "Tamboxem", "DISTRICT": "North Goa", "ORIG_FID": 3 }, "geometry": { "type": "Point", "coordinates": [ 73.83686045254791, 15.760705995585283 ] } },
{ "type": "Feature", "properties": { "OBJECTID": 4, "TYPE": "Village", "SUB_DIST": "Pernem", "STATE": "Goa", "CEN_2001": "3001000100001100", "NAME": "Uguem", "DISTRICT": "North Goa", "ORIG_FID": 4 }, "geometry": { "type": "Point", "coordinates": [ 73.83890817826989, 15.748757639753308 ] } },
{ "type": "Feature", "properties": { "OBJECTID": 5, "TYPE": "Village", "SUB_DIST": "Pernem", "STATE": "Goa", "CEN_2001": "3001000100001500", "NAME": "Chandel", "DISTRICT": "North Goa", "ORIG_FID": 5 }, "geometry": { "type": "Point", "coordinates": [ 73.887480576367579, 15.738809395037606 ] } },
{ "type": "Feature", "properties": { "OBJECTID": 6, "TYPE": "Village", "SUB_DIST": "Pernem", "STATE": "Goa", "CEN_2001": "3001000100001600", "NAME": "Alorna", "DISTRICT": "North Goa", "ORIG_FID": 6 }, "geometry": { "type": "Point", "coordinates": [ 73.914525706596123, 15.721760423604735 ] } },
{ "type": "Feature", "properties": { "OBJECTID": 7, "TYPE": "Village", "SUB_DIST": "Pernem", "STATE": "Goa", "CEN_2001": "3001000100000900", "NAME": "Varconda", "DISTRICT": "North Goa", "ORIG_FID": 7 }, "geometry": { "type": "Point", "coordinates": [ 73.845460022661996, 15.724791915914238 ] } },
{ "type": "Feature", "properties": { "OBJECTID": 8, "TYPE": "Village", "SUB_DIST": "Pernem", "STATE": "Goa", "CEN_2001": "3001000100001000", "NAME": "Amberem", "DISTRICT": "North Goa", "ORIG_FID": 8 }, "geometry": { "type": "Point", "coordinates": [ 73.826607499536522, 15.736386745551897 ] } },
{ "type": "Feature", "properties": { "OBJECTID": 9, "TYPE": "Village", "SUB_DIST": "Pernem", "STATE": "Goa", "CEN_2001": "3001000100000700", "NAME": "Poroscodem", "DISTRICT": "North Goa", "ORIG_FID": 9 }, "geometry": { "type": "Point", "coordinates": [ 73.813734548011041, 15.735955990976265 ] } },
{ "type": "Feature", "properties": { "OBJECTID": 10, "TYPE": "Village", "SUB_DIST": "Pernem", "STATE": "Goa", "CEN_2001": "3001000100000600", "NAME": "Pernem(Rural)", "DISTRICT": "North Goa", "ORIG_FID": 10 }, "geometry": { "type": "Point", "coordinates": [ 73.800379999637357, 15.698807995592574 ] } },
{ "type": "Feature", "properties": { "OBJECTID": 11, "TYPE": "Village", "SUB_DIST": "Pernem", "STATE": "Goa", "CEN_2001": "3001000100000500", "NAME": "Corgao", "DISTRICT": "North Goa", "ORIG_FID": 11 }, "geometry": { "type": "Point", "coordinates": [ 73.757373347402108, 15.70644278650542 ] } },
{ "type": "Feature", "properties": { "OBJECTID": 12, "TYPE": "Village", "SUB_DIST": "Pernem", "STATE": "Goa", "CEN_2001": "3001000100001800", "NAME": "Cansarvornem", "DISTRICT": "North Goa", "ORIG_FID": 12 }, "geometry": { "type": "Point", "coordinates": [ 73.876311104473928, 15.718030120293861 ] } },
{ "type": "Feature", "properties": { "OBJECTID": 13, "TYPE": "Village", "SUB_DIST": "Pernem", "STATE": "Goa", "CEN_2001": "3001000100000800", "NAME": "Casnem", "DISTRICT": "North Goa", "ORIG_FID": 13 }, "geometry": { "type": "Point", "coordinates": [ 73.821204559742682, 15.725934242871062 ] } },
{ "type": "Feature", "properties": { "OBJECTID": 14, "TYPE": "Village", "SUB_DIST": "Pernem", "STATE": "Goa", "CEN_2001": "3001000100000100", "NAME": "Tiracol", "DISTRICT": "North Goa", "ORIG_FID": 14 }, "geometry": { "type": "Point", "coordinates": [ 73.6866551403225, 15.725259322359875 ] } },
{ "type": "Feature", "properties": { "OBJECTID": 15, "TYPE": "Town", "SUB_DIST": "Pernem", "STATE": "Goa", "CEN_2001": "3001000140102000", "NAME": "Parcem", "DISTRICT": "North Goa", "ORIG_FID": 15 }, "geometry": { "type": "Point", "coordinates": [ 73.803145461693759, 15.716450997115885 ] } },
{ "type": "Feature", "properties": { "OBJECTID": 16, "TYPE": "Village", "SUB_DIST": "Pernem", "STATE": "Goa", "CEN_2001": "3001000100000200", "NAME": "Querim", "DISTRICT": "North Goa", "ORIG_FID": 16 }, "geometry": { "type": "Point", "coordinates": [ 73.700537211223377, 15.715470087674476 ] } },
{ "type": "Feature", "properties": { "OBJECTID": 17, "TYPE": "Village", "SUB_DIST": "Pernem", "STATE": "Goa", "CEN_2001": "3001000100000300", "NAME": "Paliem", "DISTRICT": "North Goa", "ORIG_FID": 17 }, "geometry": { "type": "Point", "coordinates": [ 73.720481479836508, 15.707979009323878 ] } },
{ "type": "Feature", "properties": { "OBJECTID": 18, "TYPE": "Village", "SUB_DIST": "Pernem", "STATE": "Goa", "CEN_2001": "3001000100001700", "NAME": "Ibrampur", "DISTRICT": "North Goa", "ORIG_FID": 18 }, "geometry": { "type": "Point", "coordinates": [ 73.934174094658772, 15.708838558852449 ] } },
{ "type": "Feature", "properties": { "OBJECTID": 19, "TYPE": "Village", "SUB_DIST": "Pernem", "STATE": "Goa", "CEN_2001": "3001000100001900", "NAME": "Ozorim", "DISTRICT": "North Goa", "ORIG_FID": 19 }, "geometry": { "type": "Point", "coordinates": [ 73.870742689423651, 15.694317586187708 ] } },
{ "type": "Feature", "properties": { "OBJECTID": 20, "TYPE": "Village", "SUB_DIST": "Pernem", "STATE": "Goa", "CEN_2001": "3001000100002000", "NAME": "Dargalim", "DISTRICT": "North Goa", "ORIG_FID": 20 }, "geometry": { "type": "Point", "coordinates": [ 73.839357137821708, 15.679811766200089 ] } },
{ "type": "Feature", "properties": { "OBJECTID": 21, "TYPE": "Village", "SUB_DIST": "Bicholim", "STATE": "Goa", "CEN_2001": "3001000400008600", "NAME": "Mencurem", "DISTRICT": "North Goa", "ORIG_FID": 21 }, "geometry": { "type": "Point", "coordinates": [ 73.895856135252473, 15.692309454917449 ] } },
{ "type": "Feature", "properties": { "OBJECTID": 22, "TYPE": "Village", "SUB_DIST": "Bicholim", "STATE": "Goa", "CEN_2001": "3001000400008800", "NAME": "Salem", "DISTRICT": "North Goa", "ORIG_FID": 22 }, "geometry": { "type": "Point", "coordinates": [ 73.943298980363693, 15.68866861076782 ] } },
{ "type": "Feature", "properties": { "OBJECTID": 23, "TYPE": "Village", "SUB_DIST": "Pernem", "STATE": "Goa", "CEN_2001": "3001000100002100", "NAME": "Virnora", "DISTRICT": "North Goa", "ORIG_FID": 23 }, "geometry": { "type": "Point", "coordinates": [ 73.816655572996353, 15.689150543063136 ] } },
{ "type": "Feature", "properties": { "OBJECTID": 24, "TYPE": "Village", "SUB_DIST": "Pernem", "STATE": "Goa", "CEN_2001": "3001000100000400", "NAME": "Arambol", "DISTRICT": "North Goa", "ORIG_FID": 24 }, "geometry": { "type": "Point", "coordinates": [ 73.720282831287705, 15.68770720582296 ] } },
{ "type": "Feature", "properties": { "OBJECTID": 25, "TYPE": "Village", "SUB_DIST": "Bicholim", "STATE": "Goa", "CEN_2001": "3001000400008700", "NAME": "Dumacem", "DISTRICT": "North Goa", "ORIG_FID": 25 }, "geometry": { "type": "Point", "coordinates": [ 73.908155610692916, 15.681725373327367 ] } },
{ "type": "Feature", "properties": { "OBJECTID": 26, "TYPE": "Village", "SUB_DIST": "Pernem", "STATE": "Goa", "CEN_2001": "3001000100002200", "NAME": "Tuem", "DISTRICT": "North Goa", "ORIG_FID": 26 }, "geometry": { "type": "Point", "coordinates": [ 73.801830979316321, 15.66862726393714 ] } },
{ "type": "Feature", "properties": { "OBJECTID": 27, "TYPE": "Village", "SUB_DIST": "Pernem", "STATE": "Goa", "CEN_2001": "3001000100002300", "NAME": "Mandrem", "DISTRICT": "North Goa", "ORIG_FID": 27 }, "geometry": { "type": "Point", "coordinates": [ 73.737899908054374, 15.664904111135854 ] } },
{ "type": "Feature", "properties": { "OBJECTID": 28, "TYPE": "Town", "SUB_DIST": "Pernem", "STATE": "Goa", "CEN_2001": "3001000140101000", "NAME": "Pernem", "DISTRICT": "North Goa", "ORIG_FID": 28 }, "geometry": { "type": "Point", "coordinates": [ 73.775771487164434, 15.666383998622678 ] } },
{ "type": "Feature", "properties": { "OBJECTID": 29, "TYPE": "Village", "SUB_DIST": "Bicholim", "STATE": "Goa", "CEN_2001": "3001000400008900", "NAME": "Latambarcem", "DISTRICT": "North Goa", "ORIG_FID": 29 }, "geometry": { "type": "Point", "coordinates": [ 73.938560237564957, 15.651885788698223 ] } },
{ "type": "Feature", "properties": { "OBJECTID": 30, "TYPE": "Village", "SUB_DIST": "Bardez", "STATE": "Goa", "CEN_2001": "3001000200003100", "NAME": "Pirna", "DISTRICT": "North Goa", "ORIG_FID": 30 }, "geometry": { "type": "Point", "coordinates": [ 73.887947140148469, 15.665961489930851 ] } },
{ "type": "Feature", "properties": { "OBJECTID": 31, "TYPE": "Village", "SUB_DIST": "Bardez", "STATE": "Goa", "CEN_2001": "3001000200003000", "NAME": "Nadora", "DISTRICT": "North Goa", "ORIG_FID": 31 }, "geometry": { "type": "Point", "coordinates": [ 73.866123170647882, 15.670326066195059 ] } },
{ "type": "Feature", "properties": { "OBJECTID": 32, "TYPE": "Village", "SUB_DIST": "Sattari", "STATE": "Goa", "CEN_2001": "3001000500012000", "NAME": "Surla", "DISTRICT": "North Goa", "ORIG_FID": 32 }, "geometry": { "type": "Point", "coordinates": [ 74.190016037110468, 15.653370219560031 ] } },
{ "type": "Feature", "properties": { "OBJECTID": 33, "TYPE": "Village", "SUB_DIST": "Bardez", "STATE": "Goa", "CEN_2001": "3001000200002900", "NAME": "Revora", "DISTRICT": "North Goa", "ORIG_FID": 33 }, "geometry": { "type": "Point", "coordinates": [ 73.853140866957517, 15.654417956723364 ] } },
{ "type": "Feature", "properties": { "OBJECTID": 34, "TYPE": "Village", "SUB_DIST": "Sattari", "STATE": "Goa", "CEN_2001": "3001000500012100", "NAME": "Satrem", "DISTRICT": "North Goa", "ORIG_FID": 34 }, "geometry": { "type": "Point", "coordinates": [ 74.228762093595776, 15.638815573579905 ] } },
{ "type": "Feature", "properties": { "OBJECTID": 35, "TYPE": "Village", "SUB_DIST": "Bicholim", "STATE": "Goa", "CEN_2001": "3001000400009000", "NAME": "Adwalpale", "DISTRICT": "North Goa", "ORIG_FID": 35 }, "geometry": { "type": "Point", "coordinates": [ 73.896854999658558, 15.641689725000845 ] } },
{ "type": "Feature", "properties": { "OBJECTID": 36, "TYPE": "Village", "SUB_DIST": "Sattari", "STATE": "Goa", "CEN_2001": "3001000500011900", "NAME": "Golauli", "DISTRICT": "North Goa", "ORIG_FID": 36 }, "geometry": { "type": "Point", "coordinates": [ 74.170799999920121, 15.643982166144099 ] } },
{ "type": "Feature", "properties": { "OBJECTID": 37, "TYPE": "Town", "SUB_DIST": "Bardez", "STATE": "Goa", "CEN_2001": "3001000240104000", "NAME": "Colvale", "DISTRICT": "North Goa", "ORIG_FID": 37 }, "geometry": { "type": "Point", "coordinates": [ 73.825922360928246, 15.637703139188545 ] } },
{ "type": "Feature", "properties": { "OBJECTID": 38, "TYPE": "Village", "SUB_DIST": "Bardez", "STATE": "Goa", "CEN_2001": "3001000200003500", "NAME": "Tivim", "DISTRICT": "North Goa", "ORIG_FID": 38 }, "geometry": { "type": "Point", "coordinates": [ 73.856392356821857, 15.62463688108727 ] } },
{ "type": "Feature", "properties": { "OBJECTID": 39, "TYPE": "Village", "SUB_DIST": "Bardez", "STATE": "Goa", "CEN_2001": "3001000200002800", "NAME": "Camurlim", "DISTRICT": "North Goa", "ORIG_FID": 39 }, "geometry": { "type": "Point", "coordinates": [ 73.795926942674328, 15.642818063003233 ] } },
{ "type": "Feature", "properties": { "OBJECTID": 40, "TYPE": "Village", "SUB_DIST": "Pernem", "STATE": "Goa", "CEN_2001": "3001000100002400", "NAME": "Morgim", "DISTRICT": "North Goa", "ORIG_FID": 40 }, "geometry": { "type": "Point", "coordinates": [ 73.737153379025301, 15.634174228258075 ] } },
{ "type": "Feature", "properties": { "OBJECTID": 41, "TYPE": "Village", "SUB_DIST": "Pernem", "STATE": "Goa", "CEN_2001": "3001000100002600", "NAME": "Agarvado", "DISTRICT": "North Goa", "ORIG_FID": 41 }, "geometry": { "type": "Point", "coordinates": [ 73.765187409171631, 15.644534488375996 ] } },
{ "type": "Feature", "properties": { "OBJECTID": 42, "TYPE": "Village", "SUB_DIST": "Sattari", "STATE": "Goa", "CEN_2001": "3001000500011600", "NAME": "Choraundem", "DISTRICT": "North Goa", "ORIG_FID": 42 }, "geometry": { "type": "Point", "coordinates": [ 74.12782461981044, 15.635089946743676 ] } },
{ "type": "Feature", "properties": { "OBJECTID": 43, "TYPE": "Village", "SUB_DIST": "Sattari", "STATE": "Goa", "CEN_2001": "3001000500011800", "NAME": "Ivrem-Curdo", "DISTRICT": "North Goa", "ORIG_FID": 43 }, "geometry": { "type": "Point", "coordinates": [ 74.155076359386555, 15.635083739622928 ] } },
{ "type": "Feature", "properties": { "OBJECTID": 44, "TYPE": "Village", "SUB_DIST": "Sattari", "STATE": "Goa", "CEN_2001": "3001000500011700", "NAME": "Ivrem-Buzruco", "DISTRICT": "North Goa", "ORIG_FID": 44 }, "geometry": { "type": "Point", "coordinates": [ 74.142578257880359, 15.635050115770298 ] } },
{ "type": "Feature", "properties": { "OBJECTID": 45, "TYPE": "Village", "SUB_DIST": "Pernem", "STATE": "Goa", "CEN_2001": "3001000100002500", "NAME": "Chopdem", "DISTRICT": "North Goa", "ORIG_FID": 45 }, "geometry": { "type": "Point", "coordinates": [ 73.755080773159193, 15.638452278949558 ] } },
{ "type": "Feature", "properties": { "OBJECTID": 46, "TYPE": "Village", "SUB_DIST": "Sattari", "STATE": "Goa", "CEN_2001": "3001000500011400", "NAME": "Quelaudem", "DISTRICT": "North Goa", "ORIG_FID": 46 }, "geometry": { "type": "Point", "coordinates": [ 74.102648353638642, 15.635608512922602 ] } },
{ "type": "Feature", "properties": { "OBJECTID": 47, "TYPE": "Village", "SUB_DIST": "Sattari", "STATE": "Goa", "CEN_2001": "3001000500011500", "NAME": "Ponsuli", "DISTRICT": "North Goa", "ORIG_FID": 47 }, "geometry": { "type": "Point", "coordinates": [ 74.114002983351043, 15.629268053278111 ] } },
{ "type": "Feature", "properties": { "OBJECTID": 48, "TYPE": "Village", "SUB_DIST": "Bardez", "STATE": "Goa", "CEN_2001": "3001000200002700", "NAME": "Oxel", "DISTRICT": "North Goa", "ORIG_FID": 48 }, "geometry": { "type": "Point", "coordinates": [ 73.776240965648128, 15.634515887897976 ] } },
{ "type": "Feature", "properties": { "OBJECTID": 49, "TYPE": "Village", "SUB_DIST": "Sattari", "STATE": "Goa", "CEN_2001": "3001000500011300", "NAME": "Anjunem", "DISTRICT": "North Goa", "ORIG_FID": 49 }, "geometry": { "type": "Point", "coordinates": [ 74.088795856943307, 15.628404655550469 ] } },
{ "type": "Feature", "properties": { "OBJECTID": 50, "TYPE": "Village", "SUB_DIST": "Bardez", "STATE": "Goa", "CEN_2001": "3001000200003400", "NAME": "Sircaim", "DISTRICT": "North Goa", "ORIG_FID": 50 }, "geometry": { "type": "Point", "coordinates": [ 73.878329958360951, 15.624818940741591 ] } },
{ "type": "Feature", "properties": { "OBJECTID": 51, "TYPE": "Town", "SUB_DIST": "Bardez", "STATE": "Goa", "CEN_2001": "3001000240103000", "NAME": "Siolim", "DISTRICT": "North Goa", "ORIG_FID": 51 }, "geometry": { "type": "Point", "coordinates": [ 73.79671249958227, 15.62803514480612 ] } },
{ "type": "Feature", "properties": { "OBJECTID": 52, "TYPE": "Village", "SUB_DIST": "Sattari", "STATE": "Goa", "CEN_2001": "3001000500012400", "NAME": "Rivem", "DISTRICT": "North Goa", "ORIG_FID": 52 }, "geometry": { "type": "Point", "coordinates": [ 74.176640774652071, 15.621278289161751 ] } },
{ "type": "Feature", "properties": { "OBJECTID": 53, "TYPE": "Village", "SUB_DIST": "Bardez", "STATE": "Goa", "CEN_2001": "3001000200003200", "NAME": "Moitem", "DISTRICT": "North Goa", "ORIG_FID": 53 }, "geometry": { "type": "Point", "coordinates": [ 73.905306878609622, 15.630410550206761 ] } },
{ "type": "Feature", "properties": { "OBJECTID": 54, "TYPE": "Village", "SUB_DIST": "Bardez", "STATE": "Goa", "CEN_2001": "3001000200003300", "NAME": "Assonora", "DISTRICT": "North Goa", "ORIG_FID": 54 }, "geometry": { "type": "Point", "coordinates": [ 73.895569508725885, 15.621868198558559 ] } },
{ "type": "Feature", "properties": { "OBJECTID": 55, "TYPE": "Village", "SUB_DIST": "Sattari", "STATE": "Goa", "CEN_2001": "3001000500011200", "NAME": "Siroli", "DISTRICT": "North Goa", "ORIG_FID": 55 }, "geometry": { "type": "Point", "coordinates": [ 74.069129611942117, 15.623863082815092 ] } },
{ "type": "Feature", "properties": { "OBJECTID": 56, "TYPE": "Village", "SUB_DIST": "Bicholim", "STATE": "Goa", "CEN_2001": "3001000400009200", "NAME": "Mulgao", "DISTRICT": "North Goa", "ORIG_FID": 56 }, "geometry": { "type": "Point", "coordinates": [ 73.922404408936359, 15.618150790626544 ] } },
{ "type": "Feature", "properties": { "OBJECTID": 57, "TYPE": "Village", "SUB_DIST": "Bardez", "STATE": "Goa", "CEN_2001": "3001000200003700", "NAME": "Assagao", "DISTRICT": "North Goa", "ORIG_FID": 57 }, "geometry": { "type": "Point", "coordinates": [ 73.768853544055844, 15.605783480223465 ] } },
{ "type": "Feature", "properties": { "OBJECTID": 58, "TYPE": "Village", "SUB_DIST": "Sattari", "STATE": "Goa", "CEN_2001": "3001000500012300", "NAME": "Codal", "DISTRICT": "North Goa", "ORIG_FID": 58 }, "geometry": { "type": "Point", "coordinates": [ 74.201037509373634, 15.604993325081921 ] } },
{ "type": "Feature", "properties": { "OBJECTID": 59, "TYPE": "Village", "SUB_DIST": "Bicholim", "STATE": "Goa", "CEN_2001": "3001000400009400", "NAME": "Maulinguem North", "DISTRICT": "North Goa", "ORIG_FID": 59 }, "geometry": { "type": "Point", "coordinates": [ 73.977326330046139, 15.612657826897248 ] } },
{ "type": "Feature", "properties": { "OBJECTID": 60, "TYPE": "Village", "SUB_DIST": "Sattari", "STATE": "Goa", "CEN_2001": "3001000500012200", "NAME": "Derodem", "DISTRICT": "North Goa", "ORIG_FID": 60 }, "geometry": { "type": "Point", "coordinates": [ 74.240525305098799, 15.606080389598333 ] } },
{ "type": "Feature", "properties": { "OBJECTID": 61, "TYPE": "Town", "SUB_DIST": "Bardez", "STATE": "Goa", "CEN_2001": "3001000240105000", "NAME": "Mapusa", "DISTRICT": "North Goa", "ORIG_FID": 61 }, "geometry": { "type": "Point", "coordinates": [ 73.815217693741602, 15.601739888185364 ] } },
{ "type": "Feature", "properties": { "OBJECTID": 62, "TYPE": "Village", "SUB_DIST": "Sattari", "STATE": "Goa", "CEN_2001": "3001000500012700", "NAME": "Gululem", "DISTRICT": "North Goa", "ORIG_FID": 62 }, "geometry": { "type": "Point", "coordinates": [ 74.105083727632007, 15.610432737780684 ] } },
{ "type": "Feature", "properties": { "OBJECTID": 63, "TYPE": "Village", "SUB_DIST": "Sattari", "STATE": "Goa", "CEN_2001": "3001000500011000", "NAME": "Ravona", "DISTRICT": "North Goa", "ORIG_FID": 63 }, "geometry": { "type": "Point", "coordinates": [ 74.041545837270633, 15.611281297593848 ] } },
{ "type": "Feature", "properties": { "OBJECTID": 64, "TYPE": "Village", "SUB_DIST": "Sattari", "STATE": "Goa", "CEN_2001": "3001000500011100", "NAME": "Gonteli", "DISTRICT": "North Goa", "ORIG_FID": 64 }, "geometry": { "type": "Point", "coordinates": [ 74.059157499219282, 15.612249066141544 ] } },
{ "type": "Feature", "properties": { "OBJECTID": 65, "TYPE": "Village", "SUB_DIST": "Bicholim", "STATE": "Goa", "CEN_2001": "3001000400009300", "NAME": "Ona", "DISTRICT": "North Goa", "ORIG_FID": 65 }, "geometry": { "type": "Point", "coordinates": [ 73.956037332157223, 15.615807352527327 ] } },
{ "type": "Feature", "properties": { "OBJECTID": 66, "TYPE": "Village", "SUB_DIST": "Sattari", "STATE": "Goa", "CEN_2001": "3001000500012500", "NAME": "Dongurli", "DISTRICT": "North Goa", "ORIG_FID": 66 }, "geometry": { "type": "Point", "coordinates": [ 74.145884985004102, 15.607639051401179 ] } },
{ "type": "Feature", "properties": { "OBJECTID": 67, "TYPE": "Town", "SUB_DIST": "Bicholim", "STATE": "Goa", "CEN_2001": "3001000440114000", "NAME": "Bicholim", "DISTRICT": "North Goa", "ORIG_FID": 67 }, "geometry": { "type": "Point", "coordinates": [ 73.949478724863297, 15.595089654364131 ] } },
{ "type": "Feature", "properties": { "OBJECTID": 68, "TYPE": "Village", "SUB_DIST": "Bardez", "STATE": "Goa", "CEN_2001": "3001000200003600", "NAME": "Marna", "DISTRICT": "North Goa", "ORIG_FID": 68 }, "geometry": { "type": "Point", "coordinates": [ 73.787295422345949, 15.613184095769441 ] } },
{ "type": "Feature", "properties": { "OBJECTID": 69, "TYPE": "Village", "SUB_DIST": "Bicholim", "STATE": "Goa", "CEN_2001": "3001000400009100", "NAME": "Sirigao", "DISTRICT": "North Goa", "ORIG_FID": 69 }, "geometry": { "type": "Point", "coordinates": [ 73.902437632091107, 15.608399133213481 ] } },
{ "type": "Feature", "properties": { "OBJECTID": 70, "TYPE": "Village", "SUB_DIST": "Sattari", "STATE": "Goa", "CEN_2001": "3001000500012800", "NAME": "Querim", "DISTRICT": "North Goa", "ORIG_FID": 70 }, "geometry": { "type": "Point", "coordinates": [ 74.081123642542138, 15.598645515278349 ] } },
{ "type": "Feature", "properties": { "OBJECTID": 71, "TYPE": "Town", "SUB_DIST": "Bardez", "STATE": "Goa", "CEN_2001": "3001000240113000", "NAME": "Aldona", "DISTRICT": "North Goa", "ORIG_FID": 71 }, "geometry": { "type": "Point", "coordinates": [ 73.870314999737502, 15.593303579196856 ] } },
{ "type": "Feature", "properties": { "OBJECTID": 72, "TYPE": "Village", "SUB_DIST": "Bardez", "STATE": "Goa", "CEN_2001": "3001000200005000", "NAME": "Corjuem", "DISTRICT": "North Goa", "ORIG_FID": 72 }, "geometry": { "type": "Point", "coordinates": [ 73.885922376816268, 15.593687062707829 ] } },
{ "type": "Feature", "properties": { "OBJECTID": 73, "TYPE": "Village", "SUB_DIST": "Bicholim", "STATE": "Goa", "CEN_2001": "3001000400009500", "NAME": "Curchirem", "DISTRICT": "North Goa", "ORIG_FID": 73 }, "geometry": { "type": "Point", "coordinates": [ 74.002762681052957, 15.598809849295151 ] } },
{ "type": "Feature", "properties": { "OBJECTID": 74, "TYPE": "Village", "SUB_DIST": "Bicholim", "STATE": "Goa", "CEN_2001": "3001000400009700", "NAME": "Maem", "DISTRICT": "North Goa", "ORIG_FID": 74 }, "geometry": { "type": "Point", "coordinates": [ 73.917266855481046, 15.582011743747046 ] } },
{ "type": "Feature", "properties": { "OBJECTID": 75, "TYPE": "Village", "SUB_DIST": "Sattari", "STATE": "Goa", "CEN_2001": "3001000500010900", "NAME": "Poriem", "DISTRICT": "North Goa", "ORIG_FID": 75 }, "geometry": { "type": "Point", "coordinates": [ 74.028208173668361, 15.584309198610697 ] } },
{ "type": "Feature", "properties": { "OBJECTID": 76, "TYPE": "Village", "SUB_DIST": "Bardez", "STATE": "Goa", "CEN_2001": "3001000200003800", "NAME": "Anjuna", "DISTRICT": "North Goa", "ORIG_FID": 76 }, "geometry": { "type": "Point", "coordinates": [ 73.74947838981592, 15.589165704933407 ] } },
{ "type": "Feature", "properties": { "OBJECTID": 77, "TYPE": "Village", "SUB_DIST": "Sattari", "STATE": "Goa", "CEN_2001": "3001000500012600", "NAME": "Pale", "DISTRICT": "North Goa", "ORIG_FID": 77 }, "geometry": { "type": "Point", "coordinates": [ 74.126268833140216, 15.594776732560206 ] } },
{ "type": "Feature", "properties": { "OBJECTID": 78, "TYPE": "Village", "SUB_DIST": "Bardez", "STATE": "Goa", "CEN_2001": "3001000200004800", "NAME": "Moira", "DISTRICT": "North Goa", "ORIG_FID": 78 }, "geometry": { "type": "Point", "coordinates": [ 73.838869999351061, 15.596613321747441 ] } },
{ "type": "Feature", "properties": { "OBJECTID": 79, "TYPE": "Village", "SUB_DIST": "Sattari", "STATE": "Goa", "CEN_2001": "3001000500013900", "NAME": "Sigonem", "DISTRICT": "North Goa", "ORIG_FID": 79 }, "geometry": { "type": "Point", "coordinates": [ 74.173634948094445, 15.59789510117804 ] } },
{ "type": "Feature", "properties": { "OBJECTID": 80, "TYPE": "Village", "SUB_DIST": "Sattari", "STATE": "Goa", "CEN_2001": "3001000500012900", "NAME": "Morlem", "DISTRICT": "North Goa", "ORIG_FID": 80 }, "geometry": { "type": "Point", "coordinates": [ 74.056667451841463, 15.586395471074184 ] } },
{ "type": "Feature", "properties": { "OBJECTID": 81, "TYPE": "Village", "SUB_DIST": "Bicholim", "STATE": "Goa", "CEN_2001": "3001000400009600", "NAME": "Sarvona", "DISTRICT": "North Goa", "ORIG_FID": 81 }, "geometry": { "type": "Point", "coordinates": [ 73.975204626092705, 15.584326681431264 ] } },
{ "type": "Feature", "properties": { "OBJECTID": 82, "TYPE": "Village", "SUB_DIST": "Sattari", "STATE": "Goa", "CEN_2001": "3001000500014200", "NAME": "Vainguinim", "DISTRICT": "North Goa", "ORIG_FID": 82 }, "geometry": { "type": "Point", "coordinates": [ 74.240225820964895, 15.583854852119771 ] } },
{ "type": "Feature", "properties": { "OBJECTID": 83, "TYPE": "Village", "SUB_DIST": "Sattari", "STATE": "Goa", "CEN_2001": "3001000500013800", "NAME": "Xelopo-Buzruco", "DISTRICT": "North Goa", "ORIG_FID": 83 }, "geometry": { "type": "Point", "coordinates": [ 74.167102236778874, 15.589418275033438 ] } },
{ "type": "Feature", "properties": { "OBJECTID": 84, "TYPE": "Village", "SUB_DIST": "Bardez", "STATE": "Goa", "CEN_2001": "3001000200004900", "NAME": "Nachinola", "DISTRICT": "North Goa", "ORIG_FID": 84 }, "geometry": { "type": "Point", "coordinates": [ 73.854152767036624, 15.587523690366083 ] } },
{ "type": "Feature", "properties": { "OBJECTID": 85, "TYPE": "Village", "SUB_DIST": "Sattari", "STATE": "Goa", "CEN_2001": "3001000500013200", "NAME": "Zormen", "DISTRICT": "North Goa", "ORIG_FID": 85 }, "geometry": { "type": "Point", "coordinates": [ 74.101198775103455, 15.578829668054766 ] } },
{ "type": "Feature", "properties": { "OBJECTID": 86, "TYPE": "Village", "SUB_DIST": "Bardez", "STATE": "Goa", "CEN_2001": "3001000200004200", "NAME": "Verla", "DISTRICT": "North Goa", "ORIG_FID": 86 }, "geometry": { "type": "Point", "coordinates": [ 73.788179264361645, 15.586462110837772 ] } },
{ "type": "Feature", "properties": { "OBJECTID": 87, "TYPE": "Village", "SUB_DIST": "Bardez", "STATE": "Goa", "CEN_2001": "3001000200004400", "NAME": "Bastora", "DISTRICT": "North Goa", "ORIG_FID": 87 }, "geometry": { "type": "Point", "coordinates": [ 73.822079782655919, 15.582766901771151 ] } },
{ "type": "Feature", "properties": { "OBJECTID": 88, "TYPE": "Village", "SUB_DIST": "Bardez", "STATE": "Goa", "CEN_2001": "3001000200004700", "NAME": "Ucassaim", "DISTRICT": "North Goa", "ORIG_FID": 88 }, "geometry": { "type": "Point", "coordinates": [ 73.841981471967415, 15.582053756475716 ] } },
{ "type": "Feature", "properties": { "OBJECTID": 89, "TYPE": "Village", "SUB_DIST": "Sattari", "STATE": "Goa", "CEN_2001": "3001000500014000", "NAME": "Maloli", "DISTRICT": "North Goa", "ORIG_FID": 89 }, "geometry": { "type": "Point", "coordinates": [ 74.189656026804244, 15.57799748309742 ] } },
{ "type": "Feature", "properties": { "OBJECTID": 90, "TYPE": "Village", "SUB_DIST": "Sattari", "STATE": "Goa", "CEN_2001": "3001000500013600", "NAME": "Naneli", "DISTRICT": "North Goa", "ORIG_FID": 90 }, "geometry": { "type": "Point", "coordinates": [ 74.145760660925816, 15.581358321529365 ] } },
{ "type": "Feature", "properties": { "OBJECTID": 91, "TYPE": "Village", "SUB_DIST": "Bardez", "STATE": "Goa", "CEN_2001": "3001000200004300", "NAME": "Canca", "DISTRICT": "North Goa", "ORIG_FID": 91 }, "geometry": { "type": "Point", "coordinates": [ 73.799614427463894, 15.584506673544183 ] } },
{ "type": "Feature", "properties": { "OBJECTID": 92, "TYPE": "Village", "SUB_DIST": "Sattari", "STATE": "Goa", "CEN_2001": "3001000500010800", "NAME": "Podocem", "DISTRICT": "North Goa", "ORIG_FID": 92 }, "geometry": { "type": "Point", "coordinates": [ 74.008237416423697, 15.578785800024718 ] } },
{ "type": "Feature", "properties": { "OBJECTID": 93, "TYPE": "Village", "SUB_DIST": "Sattari", "STATE": "Goa", "CEN_2001": "3001000500014100", "NAME": "Nanorem", "DISTRICT": "North Goa", "ORIG_FID": 93 }, "geometry": { "type": "Point", "coordinates": [ 74.20649216288308, 15.580383756804963 ] } },
{ "type": "Feature", "properties": { "OBJECTID": 94, "TYPE": "Village", "SUB_DIST": "Bardez", "STATE": "Goa", "CEN_2001": "3001000200004600", "NAME": "Punola", "DISTRICT": "North Goa", "ORIG_FID": 94 }, "geometry": { "type": "Point", "coordinates": [ 73.832839604364324, 15.582270618993903 ] } },
{ "type": "Feature", "properties": { "OBJECTID": 95, "TYPE": "Village", "SUB_DIST": "Bardez", "STATE": "Goa", "CEN_2001": "3001000200004100", "NAME": "Parra", "DISTRICT": "North Goa", "ORIG_FID": 95 }, "geometry": { "type": "Point", "coordinates": [ 73.78453286779768, 15.571395321636828 ] } },
{ "type": "Feature", "properties": { "OBJECTID": 96, "TYPE": "Town", "SUB_DIST": "Bicholim", "STATE": "Goa", "CEN_2001": "3001000440115000", "NAME": "Carapur", "DISTRICT": "North Goa", "ORIG_FID": 96 }, "geometry": { "type": "Point", "coordinates": [ 73.993581026543211, 15.560876386935774 ] } },
{ "type": "Feature", "properties": { "OBJECTID": 97, "TYPE": "Village", "SUB_DIST": "Sattari", "STATE": "Goa", "CEN_2001": "3001000500013400", "NAME": "Compordem", "DISTRICT": "North Goa", "ORIG_FID": 97 }, "geometry": { "type": "Point", "coordinates": [ 74.128218987816069, 15.565472178898005 ] } },
{ "type": "Feature", "properties": { "OBJECTID": 98, "TYPE": "Village", "SUB_DIST": "Sattari", "STATE": "Goa", "CEN_2001": "3001000500013100", "NAME": "Saleli", "DISTRICT": "North Goa", "ORIG_FID": 98 }, "geometry": { "type": "Point", "coordinates": [ 74.079474907341137, 15.562942134172204 ] } },
{ "type": "Feature", "properties": { "OBJECTID": 99, "TYPE": "Village", "SUB_DIST": "Sattari", "STATE": "Goa", "CEN_2001": "3001000500013700", "NAME": "Carambolim-Brama", "DISTRICT": "North Goa", "ORIG_FID": 99 }, "geometry": { "type": "Point", "coordinates": [ 74.169477683548337, 15.573443326148606 ] } },
{ "type": "Feature", "properties": { "OBJECTID": 100, "TYPE": "Village", "SUB_DIST": "Bardez", "STATE": "Goa", "CEN_2001": "3001000200003900", "NAME": "Arpora", "DISTRICT": "North Goa", "ORIG_FID": 100 }, "geometry": { "type": "Point", "coordinates": [ 73.766491676149997, 15.570522421672479 ] } },
{ "type": "Feature", "properties": { "OBJECTID": 101, "TYPE": "Town", "SUB_DIST": "Bardez", "STATE": "Goa", "CEN_2001": "3001000240106000", "NAME": "Guirim", "DISTRICT": "North Goa", "ORIG_FID": 101 }, "geometry": { "type": "Point", "coordinates": [ 73.801717499263248, 15.570495941134823 ] } },
{ "type": "Feature", "properties": { "OBJECTID": 102, "TYPE": "Village", "SUB_DIST": "Sattari", "STATE": "Goa", "CEN_2001": "3001000500014300", "NAME": "Zarani", "DISTRICT": "North Goa", "ORIG_FID": 102 }, "geometry": { "type": "Point", "coordinates": [ 74.232578426952898, 15.565785645691051 ] } },
{ "type": "Feature", "properties": { "OBJECTID": 103, "TYPE": "Village", "SUB_DIST": "Bardez", "STATE": "Goa", "CEN_2001": "3001000200004500", "NAME": "Paliem", "DISTRICT": "North Goa", "ORIG_FID": 103 }, "geometry": { "type": "Point", "coordinates": [ 73.824228245936865, 15.573009875405489 ] } },
{ "type": "Feature", "properties": { "OBJECTID": 104, "TYPE": "Village", "SUB_DIST": "Bardez", "STATE": "Goa", "CEN_2001": "3001000200005400", "NAME": "Pomburpa", "DISTRICT": "North Goa", "ORIG_FID": 104 }, "geometry": { "type": "Point", "coordinates": [ 73.85680393605287, 15.565643078865037 ] } },
{ "type": "Feature", "properties": { "OBJECTID": 105, "TYPE": "Village", "SUB_DIST": "Bardez", "STATE": "Goa", "CEN_2001": "3001000200005300", "NAME": "Olaulim", "DISTRICT": "North Goa", "ORIG_FID": 105 }, "geometry": { "type": "Point", "coordinates": [ 73.867444999587121, 15.573541682302846 ] } },
{ "type": "Feature", "properties": { "OBJECTID": 106, "TYPE": "Village", "SUB_DIST": "Bardez", "STATE": "Goa", "CEN_2001": "3001000200005100", "NAME": "Ponolem", "DISTRICT": "North Goa", "ORIG_FID": 106 }, "geometry": { "type": "Point", "coordinates": [ 73.899515082754931, 15.569370808316194 ] } },
{ "type": "Feature", "properties": { "OBJECTID": 107, "TYPE": "Village", "SUB_DIST": "Bardez", "STATE": "Goa", "CEN_2001": "3001000200005200", "NAME": "Calvim", "DISTRICT": "North Goa", "ORIG_FID": 107 }, "geometry": { "type": "Point", "coordinates": [ 73.891141586015465, 15.566050193861429 ] } },
{ "type": "Feature", "properties": { "OBJECTID": 108, "TYPE": "Town", "SUB_DIST": "Bardez", "STATE": "Goa", "CEN_2001": "3001000240112000", "NAME": "Socorro (Serula)", "DISTRICT": "North Goa", "ORIG_FID": 108 }, "geometry": { "type": "Point", "coordinates": [ 73.8309211364014, 15.555124457128045 ] } },
{ "type": "Feature", "properties": { "OBJECTID": 109, "TYPE": "Village", "SUB_DIST": "Sattari", "STATE": "Goa", "CEN_2001": "3001000500013000", "NAME": "Onda", "DISTRICT": "North Goa", "ORIG_FID": 109 }, "geometry": { "type": "Point", "coordinates": [ 74.056394660485239, 15.551091495076491 ] } },
{ "type": "Feature", "properties": { "OBJECTID": 110, "TYPE": "Town", "SUB_DIST": "Bardez", "STATE": "Goa", "CEN_2001": "3001000240108000", "NAME": "Calangute", "DISTRICT": "North Goa", "ORIG_FID": 110 }, "geometry": { "type": "Point", "coordinates": [ 73.767045406720229, 15.544256826491392 ] } },
{ "type": "Feature", "properties": { "OBJECTID": 111, "TYPE": "Village", "SUB_DIST": "Sattari", "STATE": "Goa", "CEN_2001": "3001000500013500", "NAME": "Edorem", "DISTRICT": "North Goa", "ORIG_FID": 111 }, "geometry": { "type": "Point", "coordinates": [ 74.146592267619098, 15.567359882852372 ] } },
{ "type": "Feature", "properties": { "OBJECTID": 112, "TYPE": "Town", "SUB_DIST": "Bicholim", "STATE": "Goa", "CEN_2001": "3001000440116000", "NAME": "Sanquelim", "DISTRICT": "North Goa", "ORIG_FID": 112 }, "geometry": { "type": "Point", "coordinates": [ 74.038743895114749, 15.559628704401234 ] } },
{ "type": "Feature", "properties": { "OBJECTID": 113, "TYPE": "Village", "SUB_DIST": "Bicholim", "STATE": "Goa", "CEN_2001": "3001000400009800", "NAME": "Vainguinim", "DISTRICT": "North Goa", "ORIG_FID": 113 }, "geometry": { "type": "Point", "coordinates": [ 73.910502876306737, 15.567412497688679 ] } },
{ "type": "Feature", "properties": { "OBJECTID": 114, "TYPE": "Village", "SUB_DIST": "Sattari", "STATE": "Goa", "CEN_2001": "3001000500014400", "NAME": "Ustem", "DISTRICT": "North Goa", "ORIG_FID": 114 }, "geometry": { "type": "Point", "coordinates": [ 74.201184128544753, 15.561426411399793 ] } },
{ "type": "Feature", "properties": { "OBJECTID": 115, "TYPE": "Village", "SUB_DIST": "Sattari", "STATE": "Goa", "CEN_2001": "3001000500013300", "NAME": "Dabem", "DISTRICT": "North Goa", "ORIG_FID": 115 }, "geometry": { "type": "Point", "coordinates": [ 74.108247790802977, 15.560211601784033 ] } },
{ "type": "Feature", "properties": { "OBJECTID": 116, "TYPE": "Village", "SUB_DIST": "Sattari", "STATE": "Goa", "CEN_2001": "3001000500014800", "NAME": "Nagargao", "DISTRICT": "North Goa", "ORIG_FID": 116 }, "geometry": { "type": "Point", "coordinates": [ 74.160712399857402, 15.562152118425558 ] } },
{ "type": "Feature", "properties": { "OBJECTID": 117, "TYPE": "Village", "SUB_DIST": "Bicholim", "STATE": "Goa", "CEN_2001": "3001000400010100", "NAME": "Piligao", "DISTRICT": "North Goa", "ORIG_FID": 117 }, "geometry": { "type": "Point", "coordinates": [ 73.959162858479203, 15.555837749912257 ] } },
{ "type": "Feature", "properties": { "OBJECTID": 118, "TYPE": "Village", "SUB_DIST": "Tiswadi", "STATE": "Goa", "CEN_2001": "3001000300006100", "NAME": "Chorao", "DISTRICT": "North Goa", "ORIG_FID": 118 }, "geometry": { "type": "Point", "coordinates": [ 73.860934999750498, 15.515863398477109 ] } },
{ "type": "Feature", "properties": { "OBJECTID": 119, "TYPE": "Village", "SUB_DIST": "Tiswadi", "STATE": "Goa", "CEN_2001": "3001000300006000", "NAME": "Ambarim", "DISTRICT": "North Goa", "ORIG_FID": 119 }, "geometry": { "type": "Point", "coordinates": [ 73.879854133861272, 15.563992669126435 ] } },
{ "type": "Feature", "properties": { "OBJECTID": 120, "TYPE": "Village", "SUB_DIST": "Bicholim", "STATE": "Goa", "CEN_2001": "3001000400010000", "NAME": "Naroa", "DISTRICT": "North Goa", "ORIG_FID": 120 }, "geometry": { "type": "Point", "coordinates": [ 73.92660500012073, 15.5476814268564 ] } },
{ "type": "Feature", "properties": { "OBJECTID": 121, "TYPE": "Village", "SUB_DIST": "Sattari", "STATE": "Goa", "CEN_2001": "3001000500014900", "NAME": "Satorem", "DISTRICT": "North Goa", "ORIG_FID": 121 }, "geometry": { "type": "Point", "coordinates": [ 74.148913861185804, 15.555994237344237 ] } },
{ "type": "Feature", "properties": { "OBJECTID": 122, "TYPE": "Village", "SUB_DIST": "Sattari", "STATE": "Goa", "CEN_2001": "3001000500016200", "NAME": "Codvol", "DISTRICT": "North Goa", "ORIG_FID": 122 }, "geometry": { "type": "Point", "coordinates": [ 74.264884992248653, 15.544366559968807 ] } },
{ "type": "Feature", "properties": { "OBJECTID": 123, "TYPE": "Village", "SUB_DIST": "Sattari", "STATE": "Goa", "CEN_2001": "3001000500014500", "NAME": "Davem", "DISTRICT": "North Goa", "ORIG_FID": 123 }, "geometry": { "type": "Point", "coordinates": [ 74.179091929049321, 15.550253233400042 ] } },
{ "type": "Feature", "properties": { "OBJECTID": 124, "TYPE": "Village", "SUB_DIST": "Sattari", "STATE": "Goa", "CEN_2001": "3001000500014700", "NAME": "Ambedem", "DISTRICT": "North Goa", "ORIG_FID": 124 }, "geometry": { "type": "Point", "coordinates": [ 74.164724822292783, 15.555577670473156 ] } },
{ "type": "Feature", "properties": { "OBJECTID": 125, "TYPE": "Village", "SUB_DIST": "Bicholim", "STATE": "Goa", "CEN_2001": "3001000400009900", "NAME": "Aturli", "DISTRICT": "North Goa", "ORIG_FID": 125 }, "geometry": { "type": "Point", "coordinates": [ 73.921719999678317, 15.56085734289212 ] } },
{ "type": "Feature", "properties": { "OBJECTID": 126, "TYPE": "Village", "SUB_DIST": "Sattari", "STATE": "Goa", "CEN_2001": "3001000500016300", "NAME": "Pendral", "DISTRICT": "North Goa", "ORIG_FID": 126 }, "geometry": { "type": "Point", "coordinates": [ 74.249696346709072, 15.529947170225796 ] } },
{ "type": "Feature", "properties": { "OBJECTID": 127, "TYPE": "Village", "SUB_DIST": "Bardez", "STATE": "Goa", "CEN_2001": "3001000200004000", "NAME": "Nagoa", "DISTRICT": "North Goa", "ORIG_FID": 127 }, "geometry": { "type": "Point", "coordinates": [ 73.779786999670364, 15.558148403226255 ] } },
{ "type": "Feature", "properties": { "OBJECTID": 128, "TYPE": "Village", "SUB_DIST": "Sattari", "STATE": "Goa", "CEN_2001": "3001000500016400", "NAME": "Caranzol", "DISTRICT": "North Goa", "ORIG_FID": 128 }, "geometry": { "type": "Point", "coordinates": [ 74.217098836342302, 15.515657165046207 ] } },
{ "type": "Feature", "properties": { "OBJECTID": 129, "TYPE": "Village", "SUB_DIST": "Bardez", "STATE": "Goa", "CEN_2001": "3001000200005500", "NAME": "Sangolda", "DISTRICT": "North Goa", "ORIG_FID": 129 }, "geometry": { "type": "Point", "coordinates": [ 73.806534243860312, 15.550028242809219 ] } },
{ "type": "Feature", "properties": { "OBJECTID": 130, "TYPE": "Town", "SUB_DIST": "Bardez", "STATE": "Goa", "CEN_2001": "3001000240107000", "NAME": "Saligao", "DISTRICT": "North Goa", "ORIG_FID": 130 }, "geometry": { "type": "Point", "coordinates": [ 73.790529325068348, 15.544536014725338 ] } },
{ "type": "Feature", "properties": { "OBJECTID": 131, "TYPE": "Village", "SUB_DIST": "Sattari", "STATE": "Goa", "CEN_2001": "3001000500015000", "NAME": "Mauzi", "DISTRICT": "North Goa", "ORIG_FID": 131 }, "geometry": { "type": "Point", "coordinates": [ 74.117052747186563, 15.545913646597569 ] } },
{ "type": "Feature", "properties": { "OBJECTID": 132, "TYPE": "Village", "SUB_DIST": "Bardez", "STATE": "Goa", "CEN_2001": "3001000200005900", "NAME": "Salvador do Mundo", "DISTRICT": "North Goa", "ORIG_FID": 132 }, "geometry": { "type": "Point", "coordinates": [ 73.853338537943216, 15.537657500593241 ] } },
{ "type": "Feature", "properties": { "OBJECTID": 133, "TYPE": "Village", "SUB_DIST": "Sattari", "STATE": "Goa", "CEN_2001": "3001000500015100", "NAME": "Buimpal", "DISTRICT": "North Goa", "ORIG_FID": 133 }, "geometry": { "type": "Point", "coordinates": [ 74.085570209097909, 15.544091122807117 ] } },
{ "type": "Feature", "properties": { "OBJECTID": 134, "TYPE": "Village", "SUB_DIST": "Sattari", "STATE": "Goa", "CEN_2001": "3001000500016100", "NAME": "Sonal", "DISTRICT": "North Goa", "ORIG_FID": 134 }, "geometry": { "type": "Point", "coordinates": [ 74.189810042899239, 15.542904449380899 ] } },
{ "type": "Feature", "properties": { "OBJECTID": 135, "TYPE": "Village", "SUB_DIST": "Tiswadi", "STATE": "Goa", "CEN_2001": "3001000300006200", "NAME": "Caraim", "DISTRICT": "North Goa", "ORIG_FID": 135 }, "geometry": { "type": "Point", "coordinates": [ 73.898375795506638, 15.548792669646048 ] } },
{ "type": "Feature", "properties": { "OBJECTID": 136, "TYPE": "Village", "SUB_DIST": "Sattari", "STATE": "Goa", "CEN_2001": "3001000500014600", "NAME": "Bombedem", "DISTRICT": "North Goa", "ORIG_FID": 136 }, "geometry": { "type": "Point", "coordinates": [ 74.166171427669326, 15.549611980808322 ] } },
{ "type": "Feature", "properties": { "OBJECTID": 137, "TYPE": "Village", "SUB_DIST": "Bicholim", "STATE": "Goa", "CEN_2001": "3001000400010200", "NAME": "Cudnem", "DISTRICT": "North Goa", "ORIG_FID": 137 }, "geometry": { "type": "Point", "coordinates": [ 74.020714839818083, 15.538871527798847 ] } },
{ "type": "Feature", "properties": { "OBJECTID": 138, "TYPE": "Town", "SUB_DIST": "Sattari", "STATE": "Goa", "CEN_2001": "3001000540117000", "NAME": "Valpoi", "DISTRICT": "North Goa", "ORIG_FID": 138 }, "geometry": { "type": "Point", "coordinates": [ 74.14072988667499, 15.531453180320057 ] } },
{ "type": "Feature", "properties": { "OBJECTID": 139, "TYPE": "Village", "SUB_DIST": "Tiswadi", "STATE": "Goa", "CEN_2001": "3001000300006800", "NAME": "Jua", "DISTRICT": "North Goa", "ORIG_FID": 139 }, "geometry": { "type": "Point", "coordinates": [ 73.9438762192122, 15.533716040063268 ] } },
{ "type": "Feature", "properties": { "OBJECTID": 140, "TYPE": "Village", "SUB_DIST": "Sattari", "STATE": "Goa", "CEN_2001": "3001000500015900", "NAME": "Cudcem", "DISTRICT": "North Goa", "ORIG_FID": 140 }, "geometry": { "type": "Point", "coordinates": [ 74.163083524485103, 15.533625265193905 ] } },
{ "type": "Feature", "properties": { "OBJECTID": 141, "TYPE": "Village", "SUB_DIST": "Tiswadi", "STATE": "Goa", "CEN_2001": "3001000300006300", "NAME": "Capao", "DISTRICT": "North Goa", "ORIG_FID": 141 }, "geometry": { "type": "Point", "coordinates": [ 73.90582406792646, 15.542617006269893 ] } },
{ "type": "Feature", "properties": { "OBJECTID": 142, "TYPE": "Village", "SUB_DIST": "Bicholim", "STATE": "Goa", "CEN_2001": "3001000400010300", "NAME": "Amone", "DISTRICT": "North Goa", "ORIG_FID": 142 }, "geometry": { "type": "Point", "coordinates": [ 73.981153645924053, 15.533711855517765 ] } },
{ "type": "Feature", "properties": { "OBJECTID": 143, "TYPE": "Village", "SUB_DIST": "Tiswadi", "STATE": "Goa", "CEN_2001": "3001000300006600", "NAME": "Malar", "DISTRICT": "North Goa", "ORIG_FID": 143 }, "geometry": { "type": "Point", "coordinates": [ 73.91498111068978, 15.528179027540148 ] } },
{ "type": "Feature", "properties": { "OBJECTID": 144, "TYPE": "Village", "SUB_DIST": "Sattari", "STATE": "Goa", "CEN_2001": "3001000500015200", "NAME": "Cumarconda", "DISTRICT": "North Goa", "ORIG_FID": 144 }, "geometry": { "type": "Point", "coordinates": [ 74.094857618484355, 15.52920214576244 ] } },
{ "type": "Feature", "properties": { "OBJECTID": 145, "TYPE": "Village", "SUB_DIST": "Sattari", "STATE": "Goa", "CEN_2001": "3001000500015300", "NAME": "Pissurlem", "DISTRICT": "North Goa", "ORIG_FID": 145 }, "geometry": { "type": "Point", "coordinates": [ 74.068100311780029, 15.527880129764242 ] } },
{ "type": "Feature", "properties": { "OBJECTID": 146, "TYPE": "Village", "SUB_DIST": "Sattari", "STATE": "Goa", "CEN_2001": "3001000500015700", "NAME": "Naguem", "DISTRICT": "North Goa", "ORIG_FID": 146 }, "geometry": { "type": "Point", "coordinates": [ 74.116010295338924, 15.53094838725832 ] } },
{ "type": "Feature", "properties": { "OBJECTID": 147, "TYPE": "Village", "SUB_DIST": "Ponda", "STATE": "Goa", "CEN_2001": "3001000600018600", "NAME": "Candola", "DISTRICT": "North Goa", "ORIG_FID": 147 }, "geometry": { "type": "Point", "coordinates": [ 73.967150375189703, 15.522552407467685 ] } },
{ "type": "Feature", "properties": { "OBJECTID": 148, "TYPE": "Village", "SUB_DIST": "Bardez", "STATE": "Goa", "CEN_2001": "3001000200005800", "NAME": "Pilerne", "DISTRICT": "North Goa", "ORIG_FID": 148 }, "geometry": { "type": "Point", "coordinates": [ 73.812439083596871, 15.528454989905924 ] } },
{ "type": "Feature", "properties": { "OBJECTID": 149, "TYPE": "Village", "SUB_DIST": "Tiswadi", "STATE": "Goa", "CEN_2001": "3001000300006700", "NAME": "Naroa", "DISTRICT": "North Goa", "ORIG_FID": 149 }, "geometry": { "type": "Point", "coordinates": [ 73.926151701340018, 15.530665563065327 ] } },
{ "type": "Feature", "properties": { "OBJECTID": 150, "TYPE": "Village", "SUB_DIST": "Tiswadi", "STATE": "Goa", "CEN_2001": "3001000300006500", "NAME": "Goltim", "DISTRICT": "North Goa", "ORIG_FID": 150 }, "geometry": { "type": "Point", "coordinates": [ 73.905070401877595, 15.518134742424479 ] } },
{ "type": "Feature", "properties": { "OBJECTID": 151, "TYPE": "Village", "SUB_DIST": "Tiswadi", "STATE": "Goa", "CEN_2001": "3001000300006400", "NAME": "Navelim", "DISTRICT": "North Goa", "ORIG_FID": 151 }, "geometry": { "type": "Point", "coordinates": [ 73.889900040454563, 15.515549045851856 ] } },
{ "type": "Feature", "properties": { "OBJECTID": 152, "TYPE": "Village", "SUB_DIST": "Bicholim", "STATE": "Goa", "CEN_2001": "3001000400010400", "NAME": "Navelim", "DISTRICT": "North Goa", "ORIG_FID": 152 }, "geometry": { "type": "Point", "coordinates": [ 74.008024932704529, 15.51786907010154 ] } },
{ "type": "Feature", "properties": { "OBJECTID": 153, "TYPE": "Village", "SUB_DIST": "Sattari", "STATE": "Goa", "CEN_2001": "3001000500015400", "NAME": "Sonus-Vonvoliem", "DISTRICT": "North Goa", "ORIG_FID": 153 }, "geometry": { "type": "Point", "coordinates": [ 74.056539999921142, 15.51577518127965 ] } },
{ "type": "Feature", "properties": { "OBJECTID": 154, "TYPE": "Village", "SUB_DIST": "Bardez", "STATE": "Goa", "CEN_2001": "3001000200005700", "NAME": "Marra", "DISTRICT": "North Goa", "ORIG_FID": 154 }, "geometry": { "type": "Point", "coordinates": [ 73.797403383959079, 15.520944493393699 ] } },
{ "type": "Feature", "properties": { "OBJECTID": 155, "TYPE": "Village", "SUB_DIST": "Sattari", "STATE": "Goa", "CEN_2001": "3001000500016000", "NAME": "Sanvordem", "DISTRICT": "North Goa", "ORIG_FID": 155 }, "geometry": { "type": "Point", "coordinates": [ 74.173835379099501, 15.523763653070205 ] } },
{ "type": "Feature", "properties": { "OBJECTID": 156, "TYPE": "Town", "SUB_DIST": "Bardez", "STATE": "Goa", "CEN_2001": "3001000240111000", "NAME": "Penha-de-Franca", "DISTRICT": "North Goa", "ORIG_FID": 156 }, "geometry": { "type": "Point", "coordinates": [ 73.836787834091353, 15.516069637303985 ] } },
{ "type": "Feature", "properties": { "OBJECTID": 157, "TYPE": "Town", "SUB_DIST": "Bardez", "STATE": "Goa", "CEN_2001": "3001000240109000", "NAME": "Candolim", "DISTRICT": "North Goa", "ORIG_FID": 157 }, "geometry": { "type": "Point", "coordinates": [ 73.771424588873742, 15.511001307364495 ] } },
{ "type": "Feature", "properties": { "OBJECTID": 158, "TYPE": "Village", "SUB_DIST": "Sattari", "STATE": "Goa", "CEN_2001": "3001000500016600", "NAME": "Velguem", "DISTRICT": "North Goa", "ORIG_FID": 158 }, "geometry": { "type": "Point", "coordinates": [ 74.157951652047188, 15.506464054972184 ] } },
{ "type": "Feature", "properties": { "OBJECTID": 159, "TYPE": "Village", "SUB_DIST": "Ponda", "STATE": "Goa", "CEN_2001": "3001000600018700", "NAME": "Orgao", "DISTRICT": "North Goa", "ORIG_FID": 159 }, "geometry": { "type": "Point", "coordinates": [ 73.961816909822574, 15.512166388068408 ] } },
{ "type": "Feature", "properties": { "OBJECTID": 160, "TYPE": "Village", "SUB_DIST": "Bicholim", "STATE": "Goa", "CEN_2001": "3001000400010600", "NAME": "Surla", "DISTRICT": "North Goa", "ORIG_FID": 160 }, "geometry": { "type": "Point", "coordinates": [ 74.037953043897915, 15.497591728575458 ] } },
{ "type": "Feature", "properties": { "OBJECTID": 161, "TYPE": "Village", "SUB_DIST": "Sattari", "STATE": "Goa", "CEN_2001": "3001000500015800", "NAME": "Ansolem", "DISTRICT": "North Goa", "ORIG_FID": 161 }, "geometry": { "type": "Point", "coordinates": [ 74.116973415290943, 15.515866767337513 ] } },
{ "type": "Feature", "properties": { "OBJECTID": 162, "TYPE": "Village", "SUB_DIST": "Sattari", "STATE": "Goa", "CEN_2001": "3001000500015600", "NAME": "Codiem", "DISTRICT": "North Goa", "ORIG_FID": 162 }, "geometry": { "type": "Point", "coordinates": [ 74.099605298745587, 15.512876697801403 ] } },
{ "type": "Feature", "properties": { "OBJECTID": 163, "TYPE": "Village", "SUB_DIST": "Tiswadi", "STATE": "Goa", "CEN_2001": "3001000300007200", "NAME": "Ella", "DISTRICT": "North Goa", "ORIG_FID": 163 }, "geometry": { "type": "Point", "coordinates": [ 73.92096340903413, 15.503405535337208 ] } },
{ "type": "Feature", "properties": { "OBJECTID": 164, "TYPE": "Village", "SUB_DIST": "Bardez", "STATE": "Goa", "CEN_2001": "3001000200005600", "NAME": "Nerul", "DISTRICT": "North Goa", "ORIG_FID": 164 }, "geometry": { "type": "Point", "coordinates": [ 73.789613460892554, 15.507259771521262 ] } },
{ "type": "Feature", "properties": { "OBJECTID": 165, "TYPE": "Village", "SUB_DIST": "Ponda", "STATE": "Goa", "CEN_2001": "3001000600018900", "NAME": "Betqui", "DISTRICT": "North Goa", "ORIG_FID": 165 }, "geometry": { "type": "Point", "coordinates": [ 73.988015581054299, 15.502684819548847 ] } },
{ "type": "Feature", "properties": { "OBJECTID": 166, "TYPE": "Town", "SUB_DIST": "Bardez", "STATE": "Goa", "CEN_2001": "3001000240110000", "NAME": "Reis Magos", "DISTRICT": "North Goa", "ORIG_FID": 166 }, "geometry": { "type": "Point", "coordinates": [ 73.815054487474697, 15.507288687423056 ] } },
{ "type": "Feature", "properties": { "OBJECTID": 167, "TYPE": "Village", "SUB_DIST": "Tiswadi", "STATE": "Goa", "CEN_2001": "3001000300006900", "NAME": "Cumbarjua", "DISTRICT": "North Goa", "ORIG_FID": 167 }, "geometry": { "type": "Point", "coordinates": [ 73.950269999660804, 15.507692439854281 ] } },
{ "type": "Feature", "properties": { "OBJECTID": 168, "TYPE": "Village", "SUB_DIST": "Tiswadi", "STATE": "Goa", "CEN_2001": "3001000300007000", "NAME": "Gandaulim", "DISTRICT": "North Goa", "ORIG_FID": 168 }, "geometry": { "type": "Point", "coordinates": [ 73.939251679521476, 15.510121532982396 ] } },
{ "type": "Feature", "properties": { "OBJECTID": 169, "TYPE": "Village", "SUB_DIST": "Sattari", "STATE": "Goa", "CEN_2001": "3001000500016500", "NAME": "Carambolim-Buzruco", "DISTRICT": "North Goa", "ORIG_FID": 169 }, "geometry": { "type": "Point", "coordinates": [ 74.181721577289011, 15.507112019204385 ] } },
{ "type": "Feature", "properties": { "OBJECTID": 170, "TYPE": "Village", "SUB_DIST": "Sattari", "STATE": "Goa", "CEN_2001": "3001000500016900", "NAME": "Advoi", "DISTRICT": "North Goa", "ORIG_FID": 170 }, "geometry": { "type": "Point", "coordinates": [ 74.109953587987775, 15.502267139317098 ] } },
{ "type": "Feature", "properties": { "OBJECTID": 171, "TYPE": "Village", "SUB_DIST": "Sattari", "STATE": "Goa", "CEN_2001": "3001000500015500", "NAME": "Vaguriem", "DISTRICT": "North Goa", "ORIG_FID": 171 }, "geometry": { "type": "Point", "coordinates": [ 74.085322175178305, 15.508631407613393 ] } },
{ "type": "Feature", "properties": { "OBJECTID": 172, "TYPE": "Village", "SUB_DIST": "Sattari", "STATE": "Goa", "CEN_2001": "3001000500016700", "NAME": "Codqui", "DISTRICT": "North Goa", "ORIG_FID": 172 }, "geometry": { "type": "Point", "coordinates": [ 74.143398829892135, 15.505196043262856 ] } },
{ "type": "Feature", "properties": { "OBJECTID": 173, "TYPE": "Village", "SUB_DIST": "Sattari", "STATE": "Goa", "CEN_2001": "3001000500016800", "NAME": "Sanvorcem", "DISTRICT": "North Goa", "ORIG_FID": 173 }, "geometry": { "type": "Point", "coordinates": [ 74.131109899002695, 15.501931999762007 ] } },
{ "type": "Feature", "properties": { "OBJECTID": 174, "TYPE": "Village", "SUB_DIST": "Bicholim", "STATE": "Goa", "CEN_2001": "3001000400010700", "NAME": "Velguem", "DISTRICT": "North Goa", "ORIG_FID": 174 }, "geometry": { "type": "Point", "coordinates": [ 74.059839161048501, 15.499046108591074 ] } },
{ "type": "Feature", "properties": { "OBJECTID": 175, "TYPE": "Town", "SUB_DIST": "Tiswadi", "STATE": "Goa", "CEN_2001": "3001000340119000", "NAME": "Chimbel", "DISTRICT": "North Goa", "ORIG_FID": 175 }, "geometry": { "type": "Point", "coordinates": [ 73.876540242738088, 15.495438472807336 ] } },
{ "type": "Feature", "properties": { "OBJECTID": 176, "TYPE": "Town", "SUB_DIST": "Tiswadi", "STATE": "Goa", "CEN_2001": "3001000340122000", "NAME": "Bambolim", "DISTRICT": "North Goa", "ORIG_FID": 176 }, "geometry": { "type": "Point", "coordinates": [ 73.856412200362797, 15.479229788324119 ] } },
{ "type": "Feature", "properties": { "OBJECTID": 177, "TYPE": "Village", "SUB_DIST": "Tiswadi", "STATE": "Goa", "CEN_2001": "3001000300007100", "NAME": "Corlim", "DISTRICT": "North Goa", "ORIG_FID": 177 }, "geometry": { "type": "Point", "coordinates": [ 73.942993170398552, 15.49261209966869 ] } },
{ "type": "Feature", "properties": { "OBJECTID": 178, "TYPE": "Village", "SUB_DIST": "Ponda", "STATE": "Goa", "CEN_2001": "3001000600018800", "NAME": "Tivrem", "DISTRICT": "North Goa", "ORIG_FID": 178 }, "geometry": { "type": "Point", "coordinates": [ 73.965227291906047, 15.498344825353456 ] } },
{ "type": "Feature", "properties": { "OBJECTID": 179, "TYPE": "Town", "SUB_DIST": "Tiswadi", "STATE": "Goa", "CEN_2001": "3001000340120000", "NAME": "Panaji", "DISTRICT": "North Goa", "ORIG_FID": 179 }, "geometry": { "type": "Point", "coordinates": [ 73.819071458680924, 15.477015391247335 ] } },
{ "type": "Feature", "properties": { "OBJECTID": 180, "TYPE": "Village", "SUB_DIST": "Tiswadi", "STATE": "Goa", "CEN_2001": "3001000300007300", "NAME": "Bainguinim", "DISTRICT": "North Goa", "ORIG_FID": 180 }, "geometry": { "type": "Point", "coordinates": [ 73.899248391500123, 15.493865329221592 ] } },
{ "type": "Feature", "properties": { "OBJECTID": 181, "TYPE": "Village", "SUB_DIST": "Sattari", "STATE": "Goa", "CEN_2001": "3001000500017000", "NAME": "Ponocem", "DISTRICT": "North Goa", "ORIG_FID": 181 }, "geometry": { "type": "Point", "coordinates": [ 74.078017374302419, 15.49385044813971 ] } },
{ "type": "Feature", "properties": { "OBJECTID": 182, "TYPE": "Village", "SUB_DIST": "Ponda", "STATE": "Goa", "CEN_2001": "3001000600019100", "NAME": "Savoi-Verem", "DISTRICT": "North Goa", "ORIG_FID": 182 }, "geometry": { "type": "Point", "coordinates": [ 74.012289999883649, 15.476649215189184 ] } },
{ "type": "Feature", "properties": { "OBJECTID": 183, "TYPE": "Village", "SUB_DIST": "Sattari", "STATE": "Goa", "CEN_2001": "3001000500017800", "NAME": "Siranguli", "DISTRICT": "North Goa", "ORIG_FID": 183 }, "geometry": { "type": "Point", "coordinates": [ 74.183278012370408, 15.493408836948333 ] } },
{ "type": "Feature", "properties": { "OBJECTID": 184, "TYPE": "Village", "SUB_DIST": "Sattari", "STATE": "Goa", "CEN_2001": "3001000500017100", "NAME": "Vantem", "DISTRICT": "North Goa", "ORIG_FID": 184 }, "geometry": { "type": "Point", "coordinates": [ 74.095236534338653, 15.485960536649486 ] } },
{ "type": "Feature", "properties": { "OBJECTID": 185, "TYPE": "Village", "SUB_DIST": "Sattari", "STATE": "Goa", "CEN_2001": "3001000500017700", "NAME": "Xelopo-Curdo", "DISTRICT": "North Goa", "ORIG_FID": 185 }, "geometry": { "type": "Point", "coordinates": [ 74.168884919703316, 15.483554759344713 ] } },
{ "type": "Feature", "properties": { "OBJECTID": 186, "TYPE": "Village", "SUB_DIST": "Ponda", "STATE": "Goa", "CEN_2001": "3001000600019000", "NAME": "Volvoi", "DISTRICT": "North Goa", "ORIG_FID": 186 }, "geometry": { "type": "Point", "coordinates": [ 74.010147347122427, 15.493920796707471 ] } },
{ "type": "Feature", "properties": { "OBJECTID": 187, "TYPE": "Village", "SUB_DIST": "Sattari", "STATE": "Goa", "CEN_2001": "3001000500017400", "NAME": "Birondem", "DISTRICT": "North Goa", "ORIG_FID": 187 }, "geometry": { "type": "Point", "coordinates": [ 74.128544352639835, 15.490377615334751 ] } },
{ "type": "Feature", "properties": { "OBJECTID": 188, "TYPE": "Town", "SUB_DIST": "Bicholim", "STATE": "Goa", "CEN_2001": "3001000440118000", "NAME": "Pale", "DISTRICT": "North Goa", "ORIG_FID": 188 }, "geometry": { "type": "Point", "coordinates": [ 74.055969999715785, 15.472671797065857 ] } },
{ "type": "Feature", "properties": { "OBJECTID": 189, "TYPE": "Village", "SUB_DIST": "Sattari", "STATE": "Goa", "CEN_2001": "3001000500017900", "NAME": "Sirsodem", "DISTRICT": "North Goa", "ORIG_FID": 189 }, "geometry": { "type": "Point", "coordinates": [ 74.194026399199004, 15.486820702213663 ] } },
{ "type": "Feature", "properties": { "OBJECTID": 190, "TYPE": "Village", "SUB_DIST": "Tiswadi", "STATE": "Goa", "CEN_2001": "3001000300007600", "NAME": "Carambolim", "DISTRICT": "North Goa", "ORIG_FID": 190 }, "geometry": { "type": "Point", "coordinates": [ 73.934585960773518, 15.469654125537488 ] } },
{ "type": "Feature", "properties": { "OBJECTID": 191, "TYPE": "Village", "SUB_DIST": "Sattari", "STATE": "Goa", "CEN_2001": "3001000500017600", "NAME": "Cotorem", "DISTRICT": "North Goa", "ORIG_FID": 191 }, "geometry": { "type": "Point", "coordinates": [ 74.1466535950874, 15.481440589012038 ] } },
{ "type": "Feature", "properties": { "OBJECTID": 192, "TYPE": "Village", "SUB_DIST": "Ponda", "STATE": "Goa", "CEN_2001": "3001000600019200", "NAME": "Adcolna", "DISTRICT": "North Goa", "ORIG_FID": 192 }, "geometry": { "type": "Point", "coordinates": [ 73.969257261913185, 15.487171099666568 ] } },
{ "type": "Feature", "properties": { "OBJECTID": 193, "TYPE": "Village", "SUB_DIST": "Sattari", "STATE": "Goa", "CEN_2001": "3001000500017300", "NAME": "Padeli", "DISTRICT": "North Goa", "ORIG_FID": 193 }, "geometry": { "type": "Point", "coordinates": [ 74.115596510970249, 15.485233867349166 ] } },
{ "type": "Feature", "properties": { "OBJECTID": 194, "TYPE": "Village", "SUB_DIST": "Bicholim", "STATE": "Goa", "CEN_2001": "3001000400010500", "NAME": "Cotombi", "DISTRICT": "North Goa", "ORIG_FID": 194 }, "geometry": { "type": "Point", "coordinates": [ 74.036807500066118, 15.476825568645154 ] } },
{ "type": "Feature", "properties": { "OBJECTID": 195, "TYPE": "Village", "SUB_DIST": "Ponda", "STATE": "Goa", "CEN_2001": "3001000600019500", "NAME": "Querim", "DISTRICT": "North Goa", "ORIG_FID": 195 }, "geometry": { "type": "Point", "coordinates": [ 74.002067461943852, 15.459838382435464 ] } },
{ "type": "Feature", "properties": { "OBJECTID": 196, "TYPE": "Village", "SUB_DIST": "Sanguem", "STATE": "Goa", "CEN_2001": "3002000400030500", "NAME": "Surla", "DISTRICT": "South Goa", "ORIG_FID": 196 }, "geometry": { "type": "Point", "coordinates": [ 74.23200387078208, 15.443240165601196 ] } },
{ "type": "Feature", "properties": { "OBJECTID": 197, "TYPE": "Village", "SUB_DIST": "Tiswadi", "STATE": "Goa", "CEN_2001": "3001000300007400", "NAME": "Talaulim", "DISTRICT": "North Goa", "ORIG_FID": 197 }, "geometry": { "type": "Point", "coordinates": [ 73.889325122756247, 15.475016784696891 ] } },
{ "type": "Feature", "properties": { "OBJECTID": 198, "TYPE": "Town", "SUB_DIST": "Tiswadi", "STATE": "Goa", "CEN_2001": "3001000340121000", "NAME": "Calapor", "DISTRICT": "North Goa", "ORIG_FID": 198 }, "geometry": { "type": "Point", "coordinates": [ 73.839590203425189, 15.468771331232006 ] } },
{ "type": "Feature", "properties": { "OBJECTID": 199, "TYPE": "Village", "SUB_DIST": "Ponda", "STATE": "Goa", "CEN_2001": "3001000600019300", "NAME": "Boma", "DISTRICT": "North Goa", "ORIG_FID": 199 }, "geometry": { "type": "Point", "coordinates": [ 73.964258331756639, 15.476051407046839 ] } },
{ "type": "Feature", "properties": { "OBJECTID": 200, "TYPE": "Village", "SUB_DIST": "Sattari", "STATE": "Goa", "CEN_2001": "3001000500017500", "NAME": "Damocem", "DISTRICT": "North Goa", "ORIG_FID": 200 }, "geometry": { "type": "Point", "coordinates": [ 74.127518011247275, 15.476328074481103 ] } },
{ "type": "Feature", "properties": { "OBJECTID": 201, "TYPE": "Village", "SUB_DIST": "Sattari", "STATE": "Goa", "CEN_2001": "3001000500018000", "NAME": "Assodem", "DISTRICT": "North Goa", "ORIG_FID": 201 }, "geometry": { "type": "Point", "coordinates": [ 74.19582115372333, 15.475300378709562 ] } },
{ "type": "Feature", "properties": { "OBJECTID": 202, "TYPE": "Village", "SUB_DIST": "Tiswadi", "STATE": "Goa", "CEN_2001": "3001000300007500", "NAME": "Goalim Moula", "DISTRICT": "North Goa", "ORIG_FID": 202 }, "geometry": { "type": "Point", "coordinates": [ 73.902281693245584, 15.469642329130238 ] } },
{ "type": "Feature", "properties": { "OBJECTID": 203, "TYPE": "Village", "SUB_DIST": "Sattari", "STATE": "Goa", "CEN_2001": "3001000500017200", "NAME": "Guleli", "DISTRICT": "North Goa", "ORIG_FID": 203 }, "geometry": { "type": "Point", "coordinates": [ 74.115064999949823, 15.474520830172196 ] } },
{ "type": "Feature", "properties": { "OBJECTID": 204, "TYPE": "Village", "SUB_DIST": "Ponda", "STATE": "Goa", "CEN_2001": "3001000600019400", "NAME": "Cuncoliem", "DISTRICT": "North Goa", "ORIG_FID": 204 }, "geometry": { "type": "Point", "coordinates": [ 73.979388913467631, 15.462169667096532 ] } },
{ "type": "Feature", "properties": { "OBJECTID": 205, "TYPE": "Village", "SUB_DIST": "Sattari", "STATE": "Goa", "CEN_2001": "3001000500018400", "NAME": "Melauli", "DISTRICT": "North Goa", "ORIG_FID": 205 }, "geometry": { "type": "Point", "coordinates": [ 74.142370572943662, 15.454237945225032 ] } },
{ "type": "Feature", "properties": { "OBJECTID": 206, "TYPE": "Village", "SUB_DIST": "Sattari", "STATE": "Goa", "CEN_2001": "3001000500018500", "NAME": "Conquirem", "DISTRICT": "North Goa", "ORIG_FID": 206 }, "geometry": { "type": "Point", "coordinates": [ 74.11103420076779, 15.455102889786588 ] } },
{ "type": "Feature", "properties": { "OBJECTID": 207, "TYPE": "Village", "SUB_DIST": "Ponda", "STATE": "Goa", "CEN_2001": "3001000600019600", "NAME": "Vagurbem", "DISTRICT": "North Goa", "ORIG_FID": 207 }, "geometry": { "type": "Point", "coordinates": [ 74.028691225619639, 15.457992574297919 ] } },
{ "type": "Feature", "properties": { "OBJECTID": 208, "TYPE": "Village", "SUB_DIST": "Sattari", "STATE": "Goa", "CEN_2001": "3001000500018100", "NAME": "Govanem", "DISTRICT": "North Goa", "ORIG_FID": 208 }, "geometry": { "type": "Point", "coordinates": [ 74.18280957530169, 15.462945174080573 ] } },
{ "type": "Feature", "properties": { "OBJECTID": 209, "TYPE": "Village", "SUB_DIST": "Tiswadi", "STATE": "Goa", "CEN_2001": "3001000300007700", "NAME": "Azossim", "DISTRICT": "North Goa", "ORIG_FID": 209 }, "geometry": { "type": "Point", "coordinates": [ 73.922661034079511, 15.462284827982501 ] } },
{ "type": "Feature", "properties": { "OBJECTID": 210, "TYPE": "Village", "SUB_DIST": "Ponda", "STATE": "Goa", "CEN_2001": "3001000600019800", "NAME": "Usgao", "DISTRICT": "North Goa", "ORIG_FID": 210 }, "geometry": { "type": "Point", "coordinates": [ 74.074022661316803, 15.436708697148731 ] } },
{ "type": "Feature", "properties": { "OBJECTID": 211, "TYPE": "Village", "SUB_DIST": "Sattari", "STATE": "Goa", "CEN_2001": "3001000500018300", "NAME": "Ambeli", "DISTRICT": "North Goa", "ORIG_FID": 211 }, "geometry": { "type": "Point", "coordinates": [ 74.164510866383409, 15.461760935119116 ] } },
{ "type": "Feature", "properties": { "OBJECTID": 212, "TYPE": "Village", "SUB_DIST": "Tiswadi", "STATE": "Goa", "CEN_2001": "3001000300008100", "NAME": "Curca", "DISTRICT": "North Goa", "ORIG_FID": 212 }, "geometry": { "type": "Point", "coordinates": [ 73.872510301509237, 15.458377578562477 ] } },
{ "type": "Feature", "properties": { "OBJECTID": 213, "TYPE": "Village", "SUB_DIST": "Ponda", "STATE": "Goa", "CEN_2001": "3001000600019700", "NAME": "Gangem", "DISTRICT": "North Goa", "ORIG_FID": 213 }, "geometry": { "type": "Point", "coordinates": [ 74.091534999440739, 15.458813474562248 ] } },
{ "type": "Feature", "properties": { "OBJECTID": 214, "TYPE": "Village", "SUB_DIST": "Ponda", "STATE": "Goa", "CEN_2001": "3001000600020200", "NAME": "Cundaim", "DISTRICT": "North Goa", "ORIG_FID": 214 }, "geometry": { "type": "Point", "coordinates": [ 73.957023853368185, 15.450029101861617 ] } },
{ "type": "Feature", "properties": { "OBJECTID": 215, "TYPE": "Village", "SUB_DIST": "Tiswadi", "STATE": "Goa", "CEN_2001": "3001000300007900", "NAME": "Gancim", "DISTRICT": "North Goa", "ORIG_FID": 215 }, "geometry": { "type": "Point", "coordinates": [ 73.904164035441966, 15.45663994357858 ] } },
{ "type": "Feature", "properties": { "OBJECTID": 216, "TYPE": "Village", "SUB_DIST": "Tiswadi", "STATE": "Goa", "CEN_2001": "3001000300008000", "NAME": "Batim", "DISTRICT": "North Goa", "ORIG_FID": 216 }, "geometry": { "type": "Point", "coordinates": [ 73.887046387281032, 15.452197201839454 ] } },
{ "type": "Feature", "properties": { "OBJECTID": 217, "TYPE": "Village", "SUB_DIST": "Tiswadi", "STATE": "Goa", "CEN_2001": "3001000300007800", "NAME": "Mandur", "DISTRICT": "North Goa", "ORIG_FID": 217 }, "geometry": { "type": "Point", "coordinates": [ 73.921235645508716, 15.451490144954278 ] } },
{ "type": "Feature", "properties": { "OBJECTID": 218, "TYPE": "Village", "SUB_DIST": "Sattari", "STATE": "Goa", "CEN_2001": "3001000500018200", "NAME": "Malpona", "DISTRICT": "North Goa", "ORIG_FID": 218 }, "geometry": { "type": "Point", "coordinates": [ 74.176372300941011, 15.447900904802964 ] } },
{ "type": "Feature", "properties": { "OBJECTID": 219, "TYPE": "Village", "SUB_DIST": "Ponda", "STATE": "Goa", "CEN_2001": "3001000600020000", "NAME": "Priol", "DISTRICT": "North Goa", "ORIG_FID": 219 }, "geometry": { "type": "Point", "coordinates": [ 73.992518353439323, 15.435076360185917 ] } },
{ "type": "Feature", "properties": { "OBJECTID": 220, "TYPE": "Village", "SUB_DIST": "Ponda", "STATE": "Goa", "CEN_2001": "3001000600019900", "NAME": "Candepar", "DISTRICT": "North Goa", "ORIG_FID": 220 }, "geometry": { "type": "Point", "coordinates": [ 74.038787701091564, 15.426884120905527 ] } },
{ "type": "Feature", "properties": { "OBJECTID": 221, "TYPE": "Village", "SUB_DIST": "Tiswadi", "STATE": "Goa", "CEN_2001": "3001000300008400", "NAME": "Neura-O-Grande", "DISTRICT": "North Goa", "ORIG_FID": 221 }, "geometry": { "type": "Point", "coordinates": [ 73.919243729914285, 15.433325749783592 ] } },
{ "type": "Feature", "properties": { "OBJECTID": 222, "TYPE": "Town", "SUB_DIST": "Tiswadi", "STATE": "Goa", "CEN_2001": "3001000340123000", "NAME": "Goa Velha", "DISTRICT": "North Goa", "ORIG_FID": 222 }, "geometry": { "type": "Point", "coordinates": [ 73.884744999682027, 15.439189096599591 ] } },
{ "type": "Feature", "properties": { "OBJECTID": 223, "TYPE": "Village", "SUB_DIST": "Tiswadi", "STATE": "Goa", "CEN_2001": "3001000300008200", "NAME": "Siridao", "DISTRICT": "North Goa", "ORIG_FID": 223 }, "geometry": { "type": "Point", "coordinates": [ 73.859812500146802, 15.445517898332412 ] } },
{ "type": "Feature", "properties": { "OBJECTID": 224, "TYPE": "Village", "SUB_DIST": "Tiswadi", "STATE": "Goa", "CEN_2001": "3001000300008300", "NAME": "Neura-O-Pequeno", "DISTRICT": "North Goa", "ORIG_FID": 224 }, "geometry": { "type": "Point", "coordinates": [ 73.90467156154341, 15.441890147412437 ] } },
{ "type": "Feature", "properties": { "OBJECTID": 225, "TYPE": "Village", "SUB_DIST": "Sanguem", "STATE": "Goa", "CEN_2001": "3002000400030400", "NAME": "Aglote", "DISTRICT": "South Goa", "ORIG_FID": 225 }, "geometry": { "type": "Point", "coordinates": [ 74.168339999791215, 15.431883642815933 ] } },
{ "type": "Feature", "properties": { "OBJECTID": 226, "TYPE": "Village", "SUB_DIST": "Ponda", "STATE": "Goa", "CEN_2001": "3001000600020100", "NAME": "Velinga", "DISTRICT": "North Goa", "ORIG_FID": 226 }, "geometry": { "type": "Point", "coordinates": [ 73.9720095731833, 15.430848009627994 ] } },
{ "type": "Feature", "properties": { "OBJECTID": 227, "TYPE": "Village", "SUB_DIST": "Ponda", "STATE": "Goa", "CEN_2001": "3001000600020300", "NAME": "Marcaim", "DISTRICT": "North Goa", "ORIG_FID": 227 }, "geometry": { "type": "Point", "coordinates": [ 73.941621319368437, 15.4195717873082 ] } },
{ "type": "Feature", "properties": { "OBJECTID": 228, "TYPE": "Village", "SUB_DIST": "Sanguem", "STATE": "Goa", "CEN_2001": "3002000400030200", "NAME": "Darbandora", "DISTRICT": "South Goa", "ORIG_FID": 228 }, "geometry": { "type": "Point", "coordinates": [ 74.129945841727249, 15.391517935204604 ] } },
{ "type": "Feature", "properties": { "OBJECTID": 229, "TYPE": "Village", "SUB_DIST": "Tiswadi", "STATE": "Goa", "CEN_2001": "3001000300008500", "NAME": "Mercurim", "DISTRICT": "North Goa", "ORIG_FID": 229 }, "geometry": { "type": "Point", "coordinates": [ 73.904389276044299, 15.42391742564871 ] } },
{ "type": "Feature", "properties": { "OBJECTID": 230, "TYPE": "Village", "SUB_DIST": "Sanguem", "STATE": "Goa", "CEN_2001": "3002000400030100", "NAME": "Piliem", "DISTRICT": "South Goa", "ORIG_FID": 230 }, "geometry": { "type": "Point", "coordinates": [ 74.092624285282568, 15.407100309331838 ] } },
{ "type": "Feature", "properties": { "OBJECTID": 231, "TYPE": "Town", "SUB_DIST": "Ponda", "STATE": "Goa", "CEN_2001": "3001000640127000", "NAME": "Curti", "DISTRICT": "North Goa", "ORIG_FID": 231 }, "geometry": { "type": "Point", "coordinates": [ 74.015414999202903, 15.421303315895386 ] } },
{ "type": "Feature", "properties": { "OBJECTID": 232, "TYPE": "Town", "SUB_DIST": "Ponda", "STATE": "Goa", "CEN_2001": "3001000640124000", "NAME": "Bandora", "DISTRICT": "North Goa", "ORIG_FID": 232 }, "geometry": { "type": "Point", "coordinates": [ 73.974692297611512, 15.408258557886199 ] } },
{ "type": "Feature", "properties": { "OBJECTID": 233, "TYPE": "Village", "SUB_DIST": "Sanguem", "STATE": "Goa", "CEN_2001": "3002000400030300", "NAME": "Sancordem", "DISTRICT": "South Goa", "ORIG_FID": 233 }, "geometry": { "type": "Point", "coordinates": [ 74.179299999795205, 15.392845542288001 ] } },
{ "type": "Feature", "properties": { "OBJECTID": 234, "TYPE": "Village", "SUB_DIST": "Sanguem", "STATE": "Goa", "CEN_2001": "3002000400030600", "NAME": "Molem", "DISTRICT": "South Goa", "ORIG_FID": 234 }, "geometry": { "type": "Point", "coordinates": [ 74.241382702549743, 15.388145477531793 ] } },
{ "type": "Feature", "properties": { "OBJECTID": 235, "TYPE": "Town", "SUB_DIST": "Ponda", "STATE": "Goa", "CEN_2001": "3001000640126000", "NAME": "Ponda", "DISTRICT": "North Goa", "ORIG_FID": 235 }, "geometry": { "type": "Point", "coordinates": [ 74.009799670118753, 15.401954552260804 ] } },
{ "type": "Feature", "properties": { "OBJECTID": 236, "TYPE": "Town", "SUB_DIST": "Mormugao", "STATE": "Goa", "CEN_2001": "3002000140202000", "NAME": "Chicalim", "DISTRICT": "South Goa", "ORIG_FID": 236 }, "geometry": { "type": "Point", "coordinates": [ 73.832412500136854, 15.395552370345683 ] } },
{ "type": "Feature", "properties": { "OBJECTID": 237, "TYPE": "Village", "SUB_DIST": "Mormugao", "STATE": "Goa", "CEN_2001": "3002000100021600", "NAME": "Cortalim", "DISTRICT": "South Goa", "ORIG_FID": 237 }, "geometry": { "type": "Point", "coordinates": [ 73.915651616428988, 15.387116775418917 ] } },
{ "type": "Feature", "properties": { "OBJECTID": 238, "TYPE": "Town", "SUB_DIST": "Mormugao", "STATE": "Goa", "CEN_2001": "3002000140201000", "NAME": "Mormugao", "DISTRICT": "South Goa", "ORIG_FID": 238 }, "geometry": { "type": "Point", "coordinates": [ 73.817655894304153, 15.385992841396558 ] } },
{ "type": "Feature", "properties": { "OBJECTID": 239, "TYPE": "Village", "SUB_DIST": "Ponda", "STATE": "Goa", "CEN_2001": "3001000600020800", "NAME": "Codar", "DISTRICT": "North Goa", "ORIG_FID": 239 }, "geometry": { "type": "Point", "coordinates": [ 74.06663209029881, 15.39412024225544 ] } },
{ "type": "Feature", "properties": { "OBJECTID": 240, "TYPE": "Village", "SUB_DIST": "Ponda", "STATE": "Goa", "CEN_2001": "3001000600020700", "NAME": "Betora", "DISTRICT": "North Goa", "ORIG_FID": 240 }, "geometry": { "type": "Point", "coordinates": [ 74.033823702402003, 15.385847522645122 ] } },
{ "type": "Feature", "properties": { "OBJECTID": 241, "TYPE": "Village", "SUB_DIST": "Mormugao", "STATE": "Goa", "CEN_2001": "3002000100021700", "NAME": "Quelossim", "DISTRICT": "South Goa", "ORIG_FID": 241 }, "geometry": { "type": "Point", "coordinates": [ 73.938062611200621, 15.389821493667057 ] } },
{ "type": "Feature", "properties": { "OBJECTID": 242, "TYPE": "Town", "SUB_DIST": "Mormugao", "STATE": "Goa", "CEN_2001": "3002000140203000", "NAME": "Sancoale", "DISTRICT": "South Goa", "ORIG_FID": 242 }, "geometry": { "type": "Point", "coordinates": [ 73.884117286383741, 15.386752617439413 ] } },
{ "type": "Feature", "properties": { "OBJECTID": 243, "TYPE": "Village", "SUB_DIST": "Mormugao", "STATE": "Goa", "CEN_2001": "3002000100021500", "NAME": "Sao Jacinto Island", "DISTRICT": "South Goa", "ORIG_FID": 243 }, "geometry": { "type": "Point", "coordinates": [ 73.863459340975851, 15.406108697958075 ] } },
{ "type": "Feature", "properties": { "OBJECTID": 244, "TYPE": "Town", "SUB_DIST": "Ponda", "STATE": "Goa", "CEN_2001": "3001000640125000", "NAME": "Queula", "DISTRICT": "North Goa", "ORIG_FID": 244 }, "geometry": { "type": "Point", "coordinates": [ 74.004005000030759, 15.381854392466266 ] } },
{ "type": "Feature", "properties": { "OBJECTID": 245, "TYPE": "Village", "SUB_DIST": "Mormugao", "STATE": "Goa", "CEN_2001": "3002000100021400", "NAME": "Dabolim", "DISTRICT": "South Goa", "ORIG_FID": 245 }, "geometry": { "type": "Point", "coordinates": [ 73.851378432268916, 15.389777549194605 ] } },
{ "type": "Feature", "properties": { "OBJECTID": 246, "TYPE": "Village", "SUB_DIST": "Ponda", "STATE": "Goa", "CEN_2001": "3001000600020400", "NAME": "Durbhat", "DISTRICT": "North Goa", "ORIG_FID": 246 }, "geometry": { "type": "Point", "coordinates": [ 73.96611812884862, 15.38381737057523 ] } },
{ "type": "Feature", "properties": { "OBJECTID": 247, "TYPE": "Village", "SUB_DIST": "Ponda", "STATE": "Goa", "CEN_2001": "3001000600020500", "NAME": "Telaulim", "DISTRICT": "North Goa", "ORIG_FID": 247 }, "geometry": { "type": "Point", "coordinates": [ 73.979824881413208, 15.381520620780066 ] } },
{ "type": "Feature", "properties": { "OBJECTID": 248, "TYPE": "Village", "SUB_DIST": "Ponda", "STATE": "Goa", "CEN_2001": "3001000600020900", "NAME": "Nirancal", "DISTRICT": "North Goa", "ORIG_FID": 248 }, "geometry": { "type": "Point", "coordinates": [ 74.06271000026635, 15.364291678817949 ] } },
{ "type": "Feature", "properties": { "OBJECTID": 249, "TYPE": "Village", "SUB_DIST": "Sanguem", "STATE": "Goa", "CEN_2001": "3002000400030700", "NAME": "Caranzol", "DISTRICT": "South Goa", "ORIG_FID": 249 }, "geometry": { "type": "Point", "coordinates": [ 74.293630000324299, 15.361211417173195 ] } },
{ "type": "Feature", "properties": { "OBJECTID": 250, "TYPE": "Village", "SUB_DIST": "Mormugao", "STATE": "Goa", "CEN_2001": "3002000100022000", "NAME": "Issorcim", "DISTRICT": "South Goa", "ORIG_FID": 250 }, "geometry": { "type": "Point", "coordinates": [ 73.855310092886555, 15.37328746684318 ] } },
{ "type": "Feature", "properties": { "OBJECTID": 251, "TYPE": "Village", "SUB_DIST": "Ponda", "STATE": "Goa", "CEN_2001": "3001000600020600", "NAME": "Vadi", "DISTRICT": "North Goa", "ORIG_FID": 251 }, "geometry": { "type": "Point", "coordinates": [ 73.986317470375013, 15.374534079184457 ] } },
{ "type": "Feature", "properties": { "OBJECTID": 252, "TYPE": "Village", "SUB_DIST": "Sanguem", "STATE": "Goa", "CEN_2001": "3002000400031000", "NAME": "Sangod", "DISTRICT": "South Goa", "ORIG_FID": 252 }, "geometry": { "type": "Point", "coordinates": [ 74.172579941710978, 15.358752658108756 ] } },
{ "type": "Feature", "properties": { "OBJECTID": 253, "TYPE": "Village", "SUB_DIST": "Ponda", "STATE": "Goa", "CEN_2001": "3001000600021100", "NAME": "Borim", "DISTRICT": "North Goa", "ORIG_FID": 253 }, "geometry": { "type": "Point", "coordinates": [ 73.996884999942836, 15.363757685668702 ] } },
{ "type": "Feature", "properties": { "OBJECTID": 254, "TYPE": "Village", "SUB_DIST": "Mormugao", "STATE": "Goa", "CEN_2001": "3002000100022100", "NAME": "Chicolna", "DISTRICT": "South Goa", "ORIG_FID": 254 }, "geometry": { "type": "Point", "coordinates": [ 73.845289085822685, 15.367396137621711 ] } },
{ "type": "Feature", "properties": { "OBJECTID": 255, "TYPE": "Village", "SUB_DIST": "Salcete", "STATE": "Goa", "CEN_2001": "3002000200022800", "NAME": "Loutulim", "DISTRICT": "South Goa", "ORIG_FID": 255 }, "geometry": { "type": "Point", "coordinates": [ 73.974689109514827, 15.3511476149705 ] } },
{ "type": "Feature", "properties": { "OBJECTID": 256, "TYPE": "Village", "SUB_DIST": "Sanguem", "STATE": "Goa", "CEN_2001": "3002000400030800", "NAME": "Colem", "DISTRICT": "South Goa", "ORIG_FID": 256 }, "geometry": { "type": "Point", "coordinates": [ 74.249525776793234, 15.341751821089701 ] } },
{ "type": "Feature", "properties": { "OBJECTID": 257, "TYPE": "Village", "SUB_DIST": "Salcete", "STATE": "Goa", "CEN_2001": "3002000200022600", "NAME": "Nagoa", "DISTRICT": "South Goa", "ORIG_FID": 257 }, "geometry": { "type": "Point", "coordinates": [ 73.92506516922225, 15.359837261180701 ] } },
{ "type": "Feature", "properties": { "OBJECTID": 258, "TYPE": "Village", "SUB_DIST": "Mormugao", "STATE": "Goa", "CEN_2001": "3002000100021900", "NAME": "Pale", "DISTRICT": "South Goa", "ORIG_FID": 258 }, "geometry": { "type": "Point", "coordinates": [ 73.885731910299455, 15.36644669096205 ] } },
{ "type": "Feature", "properties": { "OBJECTID": 259, "TYPE": "Village", "SUB_DIST": "Mormugao", "STATE": "Goa", "CEN_2001": "3002000100021800", "NAME": "Cuelim", "DISTRICT": "South Goa", "ORIG_FID": 259 }, "geometry": { "type": "Point", "coordinates": [ 73.903870011092181, 15.360663342439352 ] } },
{ "type": "Feature", "properties": { "OBJECTID": 260, "TYPE": "Village", "SUB_DIST": "Salcete", "STATE": "Goa", "CEN_2001": "3002000200022700", "NAME": "Verna", "DISTRICT": "South Goa", "ORIG_FID": 260 }, "geometry": { "type": "Point", "coordinates": [ 73.940094489968772, 15.344802874553068 ] } },
{ "type": "Feature", "properties": { "OBJECTID": 261, "TYPE": "Village", "SUB_DIST": "Sanguem", "STATE": "Goa", "CEN_2001": "3002000400031200", "NAME": "Codli", "DISTRICT": "South Goa", "ORIG_FID": 261 }, "geometry": { "type": "Point", "coordinates": [ 74.124625055901674, 15.339286980809561 ] } },
{ "type": "Feature", "properties": { "OBJECTID": 262, "TYPE": "Village", "SUB_DIST": "Mormugao", "STATE": "Goa", "CEN_2001": "3002000100022300", "NAME": "Velsao", "DISTRICT": "South Goa", "ORIG_FID": 262 }, "geometry": { "type": "Point", "coordinates": [ 73.889774868315556, 15.354400925062691 ] } },
{ "type": "Feature", "properties": { "OBJECTID": 263, "TYPE": "Village", "SUB_DIST": "Ponda", "STATE": "Goa", "CEN_2001": "3001000600021200", "NAME": "Siroda", "DISTRICT": "North Goa", "ORIG_FID": 263 }, "geometry": { "type": "Point", "coordinates": [ 74.039129545092464, 15.326717449750561 ] } },
{ "type": "Feature", "properties": { "OBJECTID": 264, "TYPE": "Village", "SUB_DIST": "Ponda", "STATE": "Goa", "CEN_2001": "3001000600021000", "NAME": "Conxem", "DISTRICT": "North Goa", "ORIG_FID": 264 }, "geometry": { "type": "Point", "coordinates": [ 74.071075228638961, 15.349526692203142 ] } },
{ "type": "Feature", "properties": { "OBJECTID": 265, "TYPE": "Village", "SUB_DIST": "Sanguem", "STATE": "Goa", "CEN_2001": "3002000400030900", "NAME": "Sigao", "DISTRICT": "South Goa", "ORIG_FID": 265 }, "geometry": { "type": "Point", "coordinates": [ 74.204489480605105, 15.33340047824953 ] } },
{ "type": "Feature", "properties": { "OBJECTID": 266, "TYPE": "Village", "SUB_DIST": "Mormugao", "STATE": "Goa", "CEN_2001": "3002000100022200", "NAME": "Sao jorge Island", "DISTRICT": "South Goa", "ORIG_FID": 266 }, "geometry": { "type": "Point", "coordinates": [ 73.775574999686569, 15.351738183570376 ] } },
{ "type": "Feature", "properties": { "OBJECTID": 267, "TYPE": "Village", "SUB_DIST": "Mormugao", "STATE": "Goa", "CEN_2001": "3002000100022400", "NAME": "Cansaulim", "DISTRICT": "South Goa", "ORIG_FID": 267 }, "geometry": { "type": "Point", "coordinates": [ 73.899175069773719, 15.345997245276692 ] } },
{ "type": "Feature", "properties": { "OBJECTID": 268, "TYPE": "Village", "SUB_DIST": "Mormugao", "STATE": "Goa", "CEN_2001": "3002000100022500", "NAME": "Arossim", "DISTRICT": "South Goa", "ORIG_FID": 268 }, "geometry": { "type": "Point", "coordinates": [ 73.903319745609849, 15.336506424531933 ] } },
{ "type": "Feature", "properties": { "OBJECTID": 269, "TYPE": "Village", "SUB_DIST": "Sanguem", "STATE": "Goa", "CEN_2001": "3002000400031900", "NAME": "Calem", "DISTRICT": "South Goa", "ORIG_FID": 269 }, "geometry": { "type": "Point", "coordinates": [ 74.213149999572863, 15.302322251071075 ] } },
{ "type": "Feature", "properties": { "OBJECTID": 270, "TYPE": "Village", "SUB_DIST": "Sanguem", "STATE": "Goa", "CEN_2001": "3002000400031100", "NAME": "Cormonem", "DISTRICT": "South Goa", "ORIG_FID": 270 }, "geometry": { "type": "Point", "coordinates": [ 74.157515948502294, 15.324134259588448 ] } },
{ "type": "Feature", "properties": { "OBJECTID": 271, "TYPE": "Village", "SUB_DIST": "Sanguem", "STATE": "Goa", "CEN_2001": "3002000400032000", "NAME": "Sonauli", "DISTRICT": "South Goa", "ORIG_FID": 271 }, "geometry": { "type": "Point", "coordinates": [ 74.306329923187434, 15.311081059643243 ] } },
{ "type": "Feature", "properties": { "OBJECTID": 272, "TYPE": "Village", "SUB_DIST": "Salcete", "STATE": "Goa", "CEN_2001": "3002000200022900", "NAME": "Camurlim", "DISTRICT": "South Goa", "ORIG_FID": 272 }, "geometry": { "type": "Point", "coordinates": [ 73.98861051676198, 15.329318040894918 ] } },
{ "type": "Feature", "properties": { "OBJECTID": 273, "TYPE": "Village", "SUB_DIST": "Salcete", "STATE": "Goa", "CEN_2001": "3002000200023300", "NAME": "Utorda", "DISTRICT": "South Goa", "ORIG_FID": 273 }, "geometry": { "type": "Point", "coordinates": [ 73.910784999927841, 15.327447328731296 ] } },
{ "type": "Feature", "properties": { "OBJECTID": 274, "TYPE": "Village", "SUB_DIST": "Sanguem", "STATE": "Goa", "CEN_2001": "3002000400031300", "NAME": "Camarconda", "DISTRICT": "South Goa", "ORIG_FID": 274 }, "geometry": { "type": "Point", "coordinates": [ 74.09862806303471, 15.320118672438809 ] } },
{ "type": "Feature", "properties": { "OBJECTID": 275, "TYPE": "Village", "SUB_DIST": "Salcete", "STATE": "Goa", "CEN_2001": "3002000200023000", "NAME": "Nuvem", "DISTRICT": "South Goa", "ORIG_FID": 275 }, "geometry": { "type": "Point", "coordinates": [ 73.947926681171452, 15.314996855320658 ] } },
{ "type": "Feature", "properties": { "OBJECTID": 276, "TYPE": "Village", "SUB_DIST": "Salcete", "STATE": "Goa", "CEN_2001": "3002000200024200", "NAME": "Rachol", "DISTRICT": "South Goa", "ORIG_FID": 276 }, "geometry": { "type": "Point", "coordinates": [ 74.005554999563628, 15.317771706299254 ] } },
{ "type": "Feature", "properties": { "OBJECTID": 277, "TYPE": "Village", "SUB_DIST": "Salcete", "STATE": "Goa", "CEN_2001": "3002000200024100", "NAME": "Raia", "DISTRICT": "South Goa", "ORIG_FID": 277 }, "geometry": { "type": "Point", "coordinates": [ 73.983886233263092, 15.309030292414093 ] } },
{ "type": "Feature", "properties": { "OBJECTID": 278, "TYPE": "Village", "SUB_DIST": "Salcete", "STATE": "Goa", "CEN_2001": "3002000200023200", "NAME": "Majorda", "DISTRICT": "South Goa", "ORIG_FID": 278 }, "geometry": { "type": "Point", "coordinates": [ 73.916600492918462, 15.31708536439811 ] } },
{ "type": "Feature", "properties": { "OBJECTID": 279, "TYPE": "Village", "SUB_DIST": "Ponda", "STATE": "Goa", "CEN_2001": "3001000600021300", "NAME": "Ponchavadi", "DISTRICT": "North Goa", "ORIG_FID": 279 }, "geometry": { "type": "Point", "coordinates": [ 74.082514354154171, 15.295662908916142 ] } },
{ "type": "Feature", "properties": { "OBJECTID": 280, "TYPE": "Village", "SUB_DIST": "Sanguem", "STATE": "Goa", "CEN_2001": "3002000400031500", "NAME": "Bandoli", "DISTRICT": "South Goa", "ORIG_FID": 280 }, "geometry": { "type": "Point", "coordinates": [ 74.12843991886723, 15.305966241948568 ] } },
{ "type": "Feature", "properties": { "OBJECTID": 281, "TYPE": "Village", "SUB_DIST": "Salcete", "STATE": "Goa", "CEN_2001": "3002000200023100", "NAME": "Calata", "DISTRICT": "South Goa", "ORIG_FID": 281 }, "geometry": { "type": "Point", "coordinates": [ 73.927013135847574, 15.311622004551907 ] } },
{ "type": "Feature", "properties": { "OBJECTID": 282, "TYPE": "Village", "SUB_DIST": "Sanguem", "STATE": "Goa", "CEN_2001": "3002000400032100", "NAME": "Boma", "DISTRICT": "South Goa", "ORIG_FID": 282 }, "geometry": { "type": "Point", "coordinates": [ 74.280123609517034, 15.29646960259015 ] } },
{ "type": "Feature", "properties": { "OBJECTID": 283, "TYPE": "Village", "SUB_DIST": "Sanguem", "STATE": "Goa", "CEN_2001": "3002000400031800", "NAME": "Santona", "DISTRICT": "South Goa", "ORIG_FID": 283 }, "geometry": { "type": "Point", "coordinates": [ 74.15166778763836, 15.292043770803446 ] } },
{ "type": "Feature", "properties": { "OBJECTID": 284, "TYPE": "Village", "SUB_DIST": "Salcete", "STATE": "Goa", "CEN_2001": "3002000200023500", "NAME": "Betalbatim", "DISTRICT": "South Goa", "ORIG_FID": 284 }, "geometry": { "type": "Point", "coordinates": [ 73.919262210082991, 15.298613805782566 ] } },
{ "type": "Feature", "properties": { "OBJECTID": 285, "TYPE": "Village", "SUB_DIST": "Salcete", "STATE": "Goa", "CEN_2001": "3002000200023400", "NAME": "Gonsua", "DISTRICT": "South Goa", "ORIG_FID": 285 }, "geometry": { "type": "Point", "coordinates": [ 73.907077629329194, 15.308324845315383 ] } },
{ "type": "Feature", "properties": { "OBJECTID": 286, "TYPE": "Village", "SUB_DIST": "Sanguem", "STATE": "Goa", "CEN_2001": "3002000400031400", "NAME": "Moissal", "DISTRICT": "South Goa", "ORIG_FID": 286 }, "geometry": { "type": "Point", "coordinates": [ 74.1010494867445, 15.301996523820549 ] } },
{ "type": "Feature", "properties": { "OBJECTID": 287, "TYPE": "Village", "SUB_DIST": "Salcete", "STATE": "Goa", "CEN_2001": "3002000200024500", "NAME": "Curtorim", "DISTRICT": "South Goa", "ORIG_FID": 287 }, "geometry": { "type": "Point", "coordinates": [ 74.022351355930368, 15.286739304975015 ] } },
{ "type": "Feature", "properties": { "OBJECTID": 288, "TYPE": "Village", "SUB_DIST": "Salcete", "STATE": "Goa", "CEN_2001": "3002000200024000", "NAME": "Duncolim", "DISTRICT": "South Goa", "ORIG_FID": 288 }, "geometry": { "type": "Point", "coordinates": [ 73.937675917109971, 15.296352960520778 ] } },
{ "type": "Feature", "properties": { "OBJECTID": 289, "TYPE": "Town", "SUB_DIST": "Salcete", "STATE": "Goa", "CEN_2001": "3002000240204000", "NAME": "Margao", "DISTRICT": "South Goa", "ORIG_FID": 289 }, "geometry": { "type": "Point", "coordinates": [ 73.968804493732478, 15.284987538044504 ] } },
{ "type": "Feature", "properties": { "OBJECTID": 290, "TYPE": "Village", "SUB_DIST": "Sanguem", "STATE": "Goa", "CEN_2001": "3002000400032200", "NAME": "Oxel", "DISTRICT": "South Goa", "ORIG_FID": 290 }, "geometry": { "type": "Point", "coordinates": [ 74.255163044838696, 15.284919319071378 ] } },
{ "type": "Feature", "properties": { "OBJECTID": 291, "TYPE": "Village", "SUB_DIST": "Salcete", "STATE": "Goa", "CEN_2001": "3002000200024300", "NAME": "Macasana", "DISTRICT": "South Goa", "ORIG_FID": 291 }, "geometry": { "type": "Point", "coordinates": [ 74.057851559501898, 15.289651655099874 ] } },
{ "type": "Feature", "properties": { "OBJECTID": 292, "TYPE": "Village", "SUB_DIST": "Sanguem", "STATE": "Goa", "CEN_2001": "3002000400031600", "NAME": "Rumbrem", "DISTRICT": "South Goa", "ORIG_FID": 292 }, "geometry": { "type": "Point", "coordinates": [ 74.118120447500701, 15.290166364086474 ] } },
{ "type": "Feature", "properties": { "OBJECTID": 293, "TYPE": "Village", "SUB_DIST": "Salcete", "STATE": "Goa", "CEN_2001": "3002000200023900", "NAME": "Seraulim", "DISTRICT": "South Goa", "ORIG_FID": 293 }, "geometry": { "type": "Point", "coordinates": [ 73.938886912700923, 15.285878919076879 ] } },
{ "type": "Feature", "properties": { "OBJECTID": 294, "TYPE": "Village", "SUB_DIST": "Salcete", "STATE": "Goa", "CEN_2001": "3002000200023700", "NAME": "Colva", "DISTRICT": "South Goa", "ORIG_FID": 294 }, "geometry": { "type": "Point", "coordinates": [ 73.919711258667689, 15.282461831648277 ] } },
{ "type": "Feature", "properties": { "OBJECTID": 295, "TYPE": "Village", "SUB_DIST": "Salcete", "STATE": "Goa", "CEN_2001": "3002000200023600", "NAME": "Gandaulim", "DISTRICT": "South Goa", "ORIG_FID": 295 }, "geometry": { "type": "Point", "coordinates": [ 73.919730625567979, 15.290273684682859 ] } },
{ "type": "Feature", "properties": { "OBJECTID": 296, "TYPE": "Village", "SUB_DIST": "Sanguem", "STATE": "Goa", "CEN_2001": "3002000400032300", "NAME": "Dongurli", "DISTRICT": "South Goa", "ORIG_FID": 296 }, "geometry": { "type": "Point", "coordinates": [ 74.215194999449693, 15.278485624911696 ] } },
{ "type": "Feature", "properties": { "OBJECTID": 297, "TYPE": "Village", "SUB_DIST": "Salcete", "STATE": "Goa", "CEN_2001": "3002000200024700", "NAME": "Sernabatim", "DISTRICT": "South Goa", "ORIG_FID": 297 }, "geometry": { "type": "Point", "coordinates": [ 73.922359999514413, 15.267694617412701 ] } },
{ "type": "Feature", "properties": { "OBJECTID": 298, "TYPE": "Village", "SUB_DIST": "Sanguem", "STATE": "Goa", "CEN_2001": "3002000400031700", "NAME": "Antoriem", "DISTRICT": "South Goa", "ORIG_FID": 298 }, "geometry": { "type": "Point", "coordinates": [ 74.135565584684059, 15.277817803648759 ] } },
{ "type": "Feature", "properties": { "OBJECTID": 299, "TYPE": "Village", "SUB_DIST": "Sanguem", "STATE": "Goa", "CEN_2001": "3002000400032600", "NAME": "Dudal", "DISTRICT": "South Goa", "ORIG_FID": 299 }, "geometry": { "type": "Point", "coordinates": [ 74.186983282152823, 15.274675342193348 ] } },
{ "type": "Feature", "properties": { "OBJECTID": 300, "TYPE": "Town", "SUB_DIST": "Sanguem", "STATE": "Goa", "CEN_2001": "3002000440211000", "NAME": "Sanvordem", "DISTRICT": "South Goa", "ORIG_FID": 300 }, "geometry": { "type": "Point", "coordinates": [ 74.116009601062274, 15.27579884633974 ] } },
{ "type": "Feature", "properties": { "OBJECTID": 301, "TYPE": "Town", "SUB_DIST": "Salcete", "STATE": "Goa", "CEN_2001": "3002000240208000", "NAME": "Aquem", "DISTRICT": "South Goa", "ORIG_FID": 301 }, "geometry": { "type": "Point", "coordinates": [ 73.970759692705712, 15.26361686462667 ] } },
{ "type": "Feature", "properties": { "OBJECTID": 302, "TYPE": "Village", "SUB_DIST": "Salcete", "STATE": "Goa", "CEN_2001": "3002000200024400", "NAME": "Guirdolim", "DISTRICT": "South Goa", "ORIG_FID": 302 }, "geometry": { "type": "Point", "coordinates": [ 74.048678375706515, 15.271621898332 ] } },
{ "type": "Feature", "properties": { "OBJECTID": 303, "TYPE": "Town", "SUB_DIST": "Salcete", "STATE": "Goa", "CEN_2001": "3002000240209000", "NAME": "Davorlim", "DISTRICT": "South Goa", "ORIG_FID": 303 }, "geometry": { "type": "Point", "coordinates": [ 73.988818333899019, 15.270548492718831 ] } },
{ "type": "Feature", "properties": { "OBJECTID": 304, "TYPE": "Town", "SUB_DIST": "Salcete", "STATE": "Goa", "CEN_2001": "3002000240205000", "NAME": "Benaulim", "DISTRICT": "South Goa", "ORIG_FID": 304 }, "geometry": { "type": "Point", "coordinates": [ 73.9356499999476, 15.253768954573673 ] } },
{ "type": "Feature", "properties": { "OBJECTID": 305, "TYPE": "Town", "SUB_DIST": "Salcete", "STATE": "Goa", "CEN_2001": "3002000240210000", "NAME": "Sao Jose-de-Areal", "DISTRICT": "South Goa", "ORIG_FID": 305 }, "geometry": { "type": "Point", "coordinates": [ 74.012299999445474, 15.252459658586417 ] } },
{ "type": "Feature", "properties": { "OBJECTID": 306, "TYPE": "Village", "SUB_DIST": "Salcete", "STATE": "Goa", "CEN_2001": "3002000200025300", "NAME": "Chandor", "DISTRICT": "South Goa", "ORIG_FID": 306 }, "geometry": { "type": "Point", "coordinates": [ 74.059854076304646, 15.264906144403085 ] } },
{ "type": "Feature", "properties": { "OBJECTID": 307, "TYPE": "Village", "SUB_DIST": "Salcete", "STATE": "Goa", "CEN_2001": "3002000200023800", "NAME": "Vanelim", "DISTRICT": "South Goa", "ORIG_FID": 307 }, "geometry": { "type": "Point", "coordinates": [ 73.928928274520331, 15.273393571756003 ] } },
{ "type": "Feature", "properties": { "OBJECTID": 308, "TYPE": "Village", "SUB_DIST": "Quepem", "STATE": "Goa", "CEN_2001": "3002000300026700", "NAME": "Xelvona", "DISTRICT": "South Goa", "ORIG_FID": 308 }, "geometry": { "type": "Point", "coordinates": [ 74.082874999381772, 15.271675518610323 ] } },
{ "type": "Feature", "properties": { "OBJECTID": 309, "TYPE": "Village", "SUB_DIST": "Quepem", "STATE": "Goa", "CEN_2001": "3002000300026500", "NAME": "Assolda", "DISTRICT": "South Goa", "ORIG_FID": 309 }, "geometry": { "type": "Point", "coordinates": [ 74.067813830044258, 15.260157571115087 ] } },
{ "type": "Feature", "properties": { "OBJECTID": 310, "TYPE": "Village", "SUB_DIST": "Sanguem", "STATE": "Goa", "CEN_2001": "3002000400032700", "NAME": "Costi", "DISTRICT": "South Goa", "ORIG_FID": 310 }, "geometry": { "type": "Point", "coordinates": [ 74.170189407015584, 15.261659913774054 ] } },
{ "type": "Feature", "properties": { "OBJECTID": 311, "TYPE": "Village", "SUB_DIST": "Sanguem", "STATE": "Goa", "CEN_2001": "3002000400032800", "NAME": "Coranginim", "DISTRICT": "South Goa", "ORIG_FID": 311 }, "geometry": { "type": "Point", "coordinates": [ 74.143934568625525, 15.265869741895131 ] } },
{ "type": "Feature", "properties": { "OBJECTID": 312, "TYPE": "Village", "SUB_DIST": "Salcete", "STATE": "Goa", "CEN_2001": "3002000200024600", "NAME": "Cana", "DISTRICT": "South Goa", "ORIG_FID": 312 }, "geometry": { "type": "Point", "coordinates": [ 73.934437348704762, 15.270250911550363 ] } },
{ "type": "Feature", "properties": { "OBJECTID": 313, "TYPE": "Village", "SUB_DIST": "Sanguem", "STATE": "Goa", "CEN_2001": "3002000400032500", "NAME": "Maulinguem", "DISTRICT": "South Goa", "ORIG_FID": 313 }, "geometry": { "type": "Point", "coordinates": [ 74.207107426866287, 15.262475513434254 ] } },
{ "type": "Feature", "properties": { "OBJECTID": 314, "TYPE": "Town", "SUB_DIST": "Quepem", "STATE": "Goa", "CEN_2001": "3002000340212000", "NAME": "Curchorem Cacora", "DISTRICT": "South Goa", "ORIG_FID": 314 }, "geometry": { "type": "Point", "coordinates": [ 74.115961699572836, 15.241619129918945 ] } },
{ "type": "Feature", "properties": { "OBJECTID": 315, "TYPE": "Village", "SUB_DIST": "Quepem", "STATE": "Goa", "CEN_2001": "3002000300026800", "NAME": "Odar", "DISTRICT": "South Goa", "ORIG_FID": 315 }, "geometry": { "type": "Point", "coordinates": [ 74.094433268880323, 15.263184350077722 ] } },
{ "type": "Feature", "properties": { "OBJECTID": 316, "TYPE": "Village", "SUB_DIST": "Salcete", "STATE": "Goa", "CEN_2001": "3002000200024800", "NAME": "Adsulim", "DISTRICT": "South Goa", "ORIG_FID": 316 }, "geometry": { "type": "Point", "coordinates": [ 73.931472617567294, 15.265244400109054 ] } },
{ "type": "Feature", "properties": { "OBJECTID": 317, "TYPE": "Village", "SUB_DIST": "Sanguem", "STATE": "Goa", "CEN_2001": "3002000400032900", "NAME": "Comproi", "DISTRICT": "South Goa", "ORIG_FID": 317 }, "geometry": { "type": "Point", "coordinates": [ 74.125392499564271, 15.263443281981949 ] } },
{ "type": "Feature", "properties": { "OBJECTID": 318, "TYPE": "Village", "SUB_DIST": "Sanguem", "STATE": "Goa", "CEN_2001": "3002000400032400", "NAME": "Patiem", "DISTRICT": "South Goa", "ORIG_FID": 318 }, "geometry": { "type": "Point", "coordinates": [ 74.229376075145808, 15.250694801124212 ] } },
{ "type": "Feature", "properties": { "OBJECTID": 319, "TYPE": "Village", "SUB_DIST": "Quepem", "STATE": "Goa", "CEN_2001": "3002000300026600", "NAME": "Xic-Xelvona", "DISTRICT": "South Goa", "ORIG_FID": 319 }, "geometry": { "type": "Point", "coordinates": [ 74.079320795918079, 15.262069482120978 ] } },
{ "type": "Feature", "properties": { "OBJECTID": 320, "TYPE": "Town", "SUB_DIST": "Salcete", "STATE": "Goa", "CEN_2001": "3002000240207000", "NAME": "Navelim", "DISTRICT": "South Goa", "ORIG_FID": 320 }, "geometry": { "type": "Point", "coordinates": [ 73.954269999760754, 15.256679772253733 ] } },
{ "type": "Feature", "properties": { "OBJECTID": 321, "TYPE": "Village", "SUB_DIST": "Salcete", "STATE": "Goa", "CEN_2001": "3002000200025200", "NAME": "Cavorim", "DISTRICT": "South Goa", "ORIG_FID": 321 }, "geometry": { "type": "Point", "coordinates": [ 74.037523112201939, 15.251129984860938 ] } },
{ "type": "Feature", "properties": { "OBJECTID": 322, "TYPE": "Village", "SUB_DIST": "Sanguem", "STATE": "Goa", "CEN_2001": "3002000400033000", "NAME": "Muguli", "DISTRICT": "South Goa", "ORIG_FID": 322 }, "geometry": { "type": "Point", "coordinates": [ 74.15721636993959, 15.246978375251842 ] } },
{ "type": "Feature", "properties": { "OBJECTID": 323, "TYPE": "Village", "SUB_DIST": "Salcete", "STATE": "Goa", "CEN_2001": "3002000200025100", "NAME": "Dicarpale", "DISTRICT": "South Goa", "ORIG_FID": 323 }, "geometry": { "type": "Point", "coordinates": [ 73.995292167499599, 15.255172215325501 ] } },
{ "type": "Feature", "properties": { "OBJECTID": 324, "TYPE": "Village", "SUB_DIST": "Quepem", "STATE": "Goa", "CEN_2001": "3002000300026900", "NAME": "Xeldem", "DISTRICT": "South Goa", "ORIG_FID": 324 }, "geometry": { "type": "Point", "coordinates": [ 74.084775940457348, 15.240674835475318 ] } },
{ "type": "Feature", "properties": { "OBJECTID": 325, "TYPE": "Village", "SUB_DIST": "Sanguem", "STATE": "Goa", "CEN_2001": "3002000400033400", "NAME": "Uguem", "DISTRICT": "South Goa", "ORIG_FID": 325 }, "geometry": { "type": "Point", "coordinates": [ 74.192100417400411, 15.231257937204077 ] } },
{ "type": "Feature", "properties": { "OBJECTID": 326, "TYPE": "Village", "SUB_DIST": "Quepem", "STATE": "Goa", "CEN_2001": "3002000300027000", "NAME": "Cotombi", "DISTRICT": "South Goa", "ORIG_FID": 326 }, "geometry": { "type": "Point", "coordinates": [ 74.064262499914491, 15.244974878188145 ] } },
{ "type": "Feature", "properties": { "OBJECTID": 327, "TYPE": "Village", "SUB_DIST": "Salcete", "STATE": "Goa", "CEN_2001": "3002000200024900", "NAME": "Talaulim", "DISTRICT": "South Goa", "ORIG_FID": 327 }, "geometry": { "type": "Point", "coordinates": [ 73.961340278131388, 15.240406699909329 ] } },
{ "type": "Feature", "properties": { "OBJECTID": 328, "TYPE": "Village", "SUB_DIST": "Salcete", "STATE": "Goa", "CEN_2001": "3002000200025000", "NAME": "Dramapur", "DISTRICT": "South Goa", "ORIG_FID": 328 }, "geometry": { "type": "Point", "coordinates": [ 73.984382248941699, 15.238446801079078 ] } },
{ "type": "Feature", "properties": { "OBJECTID": 329, "TYPE": "Village", "SUB_DIST": "Salcete", "STATE": "Goa", "CEN_2001": "3002000200025500", "NAME": "Mulem", "DISTRICT": "South Goa", "ORIG_FID": 329 }, "geometry": { "type": "Point", "coordinates": [ 74.026113554596918, 15.228708810663136 ] } },
{ "type": "Feature", "properties": { "OBJECTID": 330, "TYPE": "Village", "SUB_DIST": "Quepem", "STATE": "Goa", "CEN_2001": "3002000300027100", "NAME": "Avedem", "DISTRICT": "South Goa", "ORIG_FID": 330 }, "geometry": { "type": "Point", "coordinates": [ 74.053920768528712, 15.236031922635163 ] } },
{ "type": "Feature", "properties": { "OBJECTID": 331, "TYPE": "Village", "SUB_DIST": "Sanguem", "STATE": "Goa", "CEN_2001": "3002000400033500", "NAME": "Tudou", "DISTRICT": "South Goa", "ORIG_FID": 331 }, "geometry": { "type": "Point", "coordinates": [ 74.233746038349068, 15.228339704613745 ] } },
{ "type": "Feature", "properties": { "OBJECTID": 332, "TYPE": "Town", "SUB_DIST": "Salcete", "STATE": "Goa", "CEN_2001": "3002000240206000", "NAME": "Varca", "DISTRICT": "South Goa", "ORIG_FID": 332 }, "geometry": { "type": "Point", "coordinates": [ 73.938683571489662, 15.225827242533285 ] } },
{ "type": "Feature", "properties": { "OBJECTID": 333, "TYPE": "Town", "SUB_DIST": "Sanguem", "STATE": "Goa", "CEN_2001": "3002000440213000", "NAME": "Sanguem", "DISTRICT": "South Goa", "ORIG_FID": 333 }, "geometry": { "type": "Point", "coordinates": [ 74.153049999757741, 15.233181316364721 ] } },
{ "type": "Feature", "properties": { "OBJECTID": 334, "TYPE": "Village", "SUB_DIST": "Quepem", "STATE": "Goa", "CEN_2001": "3002000300027200", "NAME": "Chaifi", "DISTRICT": "South Goa", "ORIG_FID": 334 }, "geometry": { "type": "Point", "coordinates": [ 74.06427188434003, 15.235457218975512 ] } },
{ "type": "Feature", "properties": { "OBJECTID": 335, "TYPE": "Village", "SUB_DIST": "Sanguem", "STATE": "Goa", "CEN_2001": "3002000400033600", "NAME": "Potrem", "DISTRICT": "South Goa", "ORIG_FID": 335 }, "geometry": { "type": "Point", "coordinates": [ 74.270708254482429, 15.217527679059174 ] } },
{ "type": "Feature", "properties": { "OBJECTID": 336, "TYPE": "Town", "SUB_DIST": "Quepem", "STATE": "Goa", "CEN_2001": "3002000340214000", "NAME": "Quepem", "DISTRICT": "South Goa", "ORIG_FID": 336 }, "geometry": { "type": "Point", "coordinates": [ 74.073717076182163, 15.204723402463117 ] } },
{ "type": "Feature", "properties": { "OBJECTID": 337, "TYPE": "Village", "SUB_DIST": "Salcete", "STATE": "Goa", "CEN_2001": "3002000200025600", "NAME": "Sarzora", "DISTRICT": "South Goa", "ORIG_FID": 337 }, "geometry": { "type": "Point", "coordinates": [ 74.002943543709648, 15.218323820088301 ] } },
{ "type": "Feature", "properties": { "OBJECTID": 338, "TYPE": "Village", "SUB_DIST": "Salcete", "STATE": "Goa", "CEN_2001": "3002000200025700", "NAME": "Sirlim", "DISTRICT": "South Goa", "ORIG_FID": 338 }, "geometry": { "type": "Point", "coordinates": [ 73.973363739944716, 15.227031884413975 ] } },
{ "type": "Feature", "properties": { "OBJECTID": 339, "TYPE": "Village", "SUB_DIST": "Salcete", "STATE": "Goa", "CEN_2001": "3002000200025400", "NAME": "Paroda", "DISTRICT": "South Goa", "ORIG_FID": 339 }, "geometry": { "type": "Point", "coordinates": [ 74.047547073538681, 15.222142530353551 ] } },
{ "type": "Feature", "properties": { "OBJECTID": 340, "TYPE": "Village", "SUB_DIST": "Sanguem", "STATE": "Goa", "CEN_2001": "3002000400033100", "NAME": "Cotarli", "DISTRICT": "South Goa", "ORIG_FID": 340 }, "geometry": { "type": "Point", "coordinates": [ 74.155854999608607, 15.210473684712838 ] } },
{ "type": "Feature", "properties": { "OBJECTID": 341, "TYPE": "Village", "SUB_DIST": "Salcete", "STATE": "Goa", "CEN_2001": "3002000200025800", "NAME": "Orlim", "DISTRICT": "South Goa", "ORIG_FID": 341 }, "geometry": { "type": "Point", "coordinates": [ 73.952424057624228, 15.221038718661987 ] } },
{ "type": "Feature", "properties": { "OBJECTID": 342, "TYPE": "Town", "SUB_DIST": "Salcete", "STATE": "Goa", "CEN_2001": "3002000240215000", "NAME": "Chinchinim", "DISTRICT": "South Goa", "ORIG_FID": 342 }, "geometry": { "type": "Point", "coordinates": [ 73.985222499019187, 15.207561608881178 ] } },
{ "type": "Feature", "properties": { "OBJECTID": 343, "TYPE": "Village", "SUB_DIST": "Quepem", "STATE": "Goa", "CEN_2001": "3002000300027300", "NAME": "Sirvoi", "DISTRICT": "South Goa", "ORIG_FID": 343 }, "geometry": { "type": "Point", "coordinates": [ 74.100997776626173, 15.209201255533571 ] } },
{ "type": "Feature", "properties": { "OBJECTID": 344, "TYPE": "Village", "SUB_DIST": "Salcete", "STATE": "Goa", "CEN_2001": "3002000200026000", "NAME": "Deussua", "DISTRICT": "South Goa", "ORIG_FID": 344 }, "geometry": { "type": "Point", "coordinates": [ 73.966525905745982, 15.213167004054071 ] } },
{ "type": "Feature", "properties": { "OBJECTID": 345, "TYPE": "Village", "SUB_DIST": "Quepem", "STATE": "Goa", "CEN_2001": "3002000300027400", "NAME": "Nagvem", "DISTRICT": "South Goa", "ORIG_FID": 345 }, "geometry": { "type": "Point", "coordinates": [ 74.123279794227187, 15.208795422970468 ] } },
{ "type": "Feature", "properties": { "OBJECTID": 346, "TYPE": "Village", "SUB_DIST": "Sanguem", "STATE": "Goa", "CEN_2001": "3002000400033200", "NAME": "Xelpem", "DISTRICT": "South Goa", "ORIG_FID": 346 }, "geometry": { "type": "Point", "coordinates": [ 74.170562043803329, 15.203907720065274 ] } },
{ "type": "Feature", "properties": { "OBJECTID": 347, "TYPE": "Village", "SUB_DIST": "Sanguem", "STATE": "Goa", "CEN_2001": "3002000400033700", "NAME": "Bati", "DISTRICT": "South Goa", "ORIG_FID": 347 }, "geometry": { "type": "Point", "coordinates": [ 74.233024999704014, 15.186160006878879 ] } },
{ "type": "Feature", "properties": { "OBJECTID": 348, "TYPE": "Village", "SUB_DIST": "Quepem", "STATE": "Goa", "CEN_2001": "3002000300027900", "NAME": "Ambaulim", "DISTRICT": "South Goa", "ORIG_FID": 348 }, "geometry": { "type": "Point", "coordinates": [ 74.048697041135597, 15.191975733693198 ] } },
{ "type": "Feature", "properties": { "OBJECTID": 349, "TYPE": "Town", "SUB_DIST": "Salcete", "STATE": "Goa", "CEN_2001": "3002000240216000", "NAME": "Cuncolim", "DISTRICT": "South Goa", "ORIG_FID": 349 }, "geometry": { "type": "Point", "coordinates": [ 74.014070855385739, 15.186893008305731 ] } },
{ "type": "Feature", "properties": { "OBJECTID": 350, "TYPE": "Village", "SUB_DIST": "Sanguem", "STATE": "Goa", "CEN_2001": "3002000400033300", "NAME": "Salauli", "DISTRICT": "South Goa", "ORIG_FID": 350 }, "geometry": { "type": "Point", "coordinates": [ 74.19212741235026, 15.199398143409667 ] } },
{ "type": "Feature", "properties": { "OBJECTID": 351, "TYPE": "Village", "SUB_DIST": "Salcete", "STATE": "Goa", "CEN_2001": "3002000200025900", "NAME": "Carmona", "DISTRICT": "South Goa", "ORIG_FID": 351 }, "geometry": { "type": "Point", "coordinates": [ 73.953974725353362, 15.201693430907142 ] } },
{ "type": "Feature", "properties": { "OBJECTID": 352, "TYPE": "Village", "SUB_DIST": "Quepem", "STATE": "Goa", "CEN_2001": "3002000300027500", "NAME": "Zanodem", "DISTRICT": "South Goa", "ORIG_FID": 352 }, "geometry": { "type": "Point", "coordinates": [ 74.141863894902883, 15.20048338050367 ] } },
{ "type": "Feature", "properties": { "OBJECTID": 353, "TYPE": "Village", "SUB_DIST": "Salcete", "STATE": "Goa", "CEN_2001": "3002000200026200", "NAME": "Cavelossim", "DISTRICT": "South Goa", "ORIG_FID": 353 }, "geometry": { "type": "Point", "coordinates": [ 73.949079999642322, 15.180723686948625 ] } },
{ "type": "Feature", "properties": { "OBJECTID": 354, "TYPE": "Village", "SUB_DIST": "Quepem", "STATE": "Goa", "CEN_2001": "3002000300027800", "NAME": "Molcarnem", "DISTRICT": "South Goa", "ORIG_FID": 354 }, "geometry": { "type": "Point", "coordinates": [ 74.126374547547414, 15.18613400388125 ] } },
{ "type": "Feature", "properties": { "OBJECTID": 355, "TYPE": "Village", "SUB_DIST": "Sanguem", "STATE": "Goa", "CEN_2001": "3002000400034200", "NAME": "Porteem", "DISTRICT": "South Goa", "ORIG_FID": 355 }, "geometry": { "type": "Point", "coordinates": [ 74.203738737352921, 15.173103941693626 ] } },
{ "type": "Feature", "properties": { "OBJECTID": 356, "TYPE": "Village", "SUB_DIST": "Quepem", "STATE": "Goa", "CEN_2001": "3002000300027600", "NAME": "Undorna", "DISTRICT": "South Goa", "ORIG_FID": 356 }, "geometry": { "type": "Point", "coordinates": [ 74.161531712818373, 15.1849412276556 ] } },
{ "type": "Feature", "properties": { "OBJECTID": 357, "TYPE": "Village", "SUB_DIST": "Sanguem", "STATE": "Goa", "CEN_2001": "3002000400033800", "NAME": "Cumbari", "DISTRICT": "South Goa", "ORIG_FID": 357 }, "geometry": { "type": "Point", "coordinates": [ 74.285601976350165, 15.169143581910816 ] } },
{ "type": "Feature", "properties": { "OBJECTID": 358, "TYPE": "Village", "SUB_DIST": "Salcete", "STATE": "Goa", "CEN_2001": "3002000200026100", "NAME": "Assolna", "DISTRICT": "South Goa", "ORIG_FID": 358 }, "geometry": { "type": "Point", "coordinates": [ 73.974478990113369, 15.180103786960274 ] } },
{ "type": "Feature", "properties": { "OBJECTID": 359, "TYPE": "Village", "SUB_DIST": "Sanguem", "STATE": "Goa", "CEN_2001": "3002000400034500", "NAME": "Rivona", "DISTRICT": "South Goa", "ORIG_FID": 359 }, "geometry": { "type": "Point", "coordinates": [ 74.098570000105497, 15.161216143510273 ] } },
{ "type": "Feature", "properties": { "OBJECTID": 360, "TYPE": "Village", "SUB_DIST": "Quepem", "STATE": "Goa", "CEN_2001": "3002000300027700", "NAME": "Molcopona", "DISTRICT": "South Goa", "ORIG_FID": 360 }, "geometry": { "type": "Point", "coordinates": [ 74.148458292516239, 15.176575863485368 ] } },
{ "type": "Feature", "properties": { "OBJECTID": 361, "TYPE": "Village", "SUB_DIST": "Sanguem", "STATE": "Goa", "CEN_2001": "3002000400034300", "NAME": "Curdi", "DISTRICT": "South Goa", "ORIG_FID": 361 }, "geometry": { "type": "Point", "coordinates": [ 74.175395558058597, 15.160030782194895 ] } },
{ "type": "Feature", "properties": { "OBJECTID": 362, "TYPE": "Village", "SUB_DIST": "Quepem", "STATE": "Goa", "CEN_2001": "3002000300028000", "NAME": "Adnem", "DISTRICT": "South Goa", "ORIG_FID": 362 }, "geometry": { "type": "Point", "coordinates": [ 74.050951505707474, 15.163404167068677 ] } },
{ "type": "Feature", "properties": { "OBJECTID": 363, "TYPE": "Village", "SUB_DIST": "Sanguem", "STATE": "Goa", "CEN_2001": "3002000400033900", "NAME": "Viliena", "DISTRICT": "South Goa", "ORIG_FID": 363 }, "geometry": { "type": "Point", "coordinates": [ 74.245318849885052, 15.169189723427053 ] } },
{ "type": "Feature", "properties": { "OBJECTID": 364, "TYPE": "Village", "SUB_DIST": "Quepem", "STATE": "Goa", "CEN_2001": "3002000300028100", "NAME": "Bali", "DISTRICT": "South Goa", "ORIG_FID": 364 }, "geometry": { "type": "Point", "coordinates": [ 74.030441180416176, 15.153405781551612 ] } },
{ "type": "Feature", "properties": { "OBJECTID": 365, "TYPE": "Village", "SUB_DIST": "Salcete", "STATE": "Goa", "CEN_2001": "3002000200026400", "NAME": "Ambelim", "DISTRICT": "South Goa", "ORIG_FID": 365 }, "geometry": { "type": "Point", "coordinates": [ 73.982127500184049, 15.165026721206289 ] } },
{ "type": "Feature", "properties": { "OBJECTID": 366, "TYPE": "Village", "SUB_DIST": "Sanguem", "STATE": "Goa", "CEN_2001": "3002000400034400", "NAME": "Colomba", "DISTRICT": "South Goa", "ORIG_FID": 366 }, "geometry": { "type": "Point", "coordinates": [ 74.141750989516595, 15.14663059592533 ] } },
{ "type": "Feature", "properties": { "OBJECTID": 367, "TYPE": "Village", "SUB_DIST": "Salcete", "STATE": "Goa", "CEN_2001": "3002000200026300", "NAME": "Velim", "DISTRICT": "South Goa", "ORIG_FID": 367 }, "geometry": { "type": "Point", "coordinates": [ 73.963642529978813, 15.154395429705346 ] } },
{ "type": "Feature", "properties": { "OBJECTID": 368, "TYPE": "Village", "SUB_DIST": "Sanguem", "STATE": "Goa", "CEN_2001": "3002000400034100", "NAME": "Naiquinim", "DISTRICT": "South Goa", "ORIG_FID": 368 }, "geometry": { "type": "Point", "coordinates": [ 74.213361283596441, 15.139457261543441 ] } },
{ "type": "Feature", "properties": { "OBJECTID": 369, "TYPE": "Village", "SUB_DIST": "Quepem", "STATE": "Goa", "CEN_2001": "3002000300028800", "NAME": "Cavorem", "DISTRICT": "South Goa", "ORIG_FID": 369 }, "geometry": { "type": "Point", "coordinates": [ 74.069414563931048, 15.142616602374346 ] } },
{ "type": "Feature", "properties": { "OBJECTID": 370, "TYPE": "Village", "SUB_DIST": "Sanguem", "STATE": "Goa", "CEN_2001": "3002000400034000", "NAME": "Dongor", "DISTRICT": "South Goa", "ORIG_FID": 370 }, "geometry": { "type": "Point", "coordinates": [ 74.249844447063651, 15.14797454998552 ] } },
{ "type": "Feature", "properties": { "OBJECTID": 371, "TYPE": "Village", "SUB_DIST": "Quepem", "STATE": "Goa", "CEN_2001": "3002000300028200", "NAME": "Fatorpa", "DISTRICT": "South Goa", "ORIG_FID": 371 }, "geometry": { "type": "Point", "coordinates": [ 73.993581552646617, 15.140371499744958 ] } },
{ "type": "Feature", "properties": { "OBJECTID": 372, "TYPE": "Village", "SUB_DIST": "Quepem", "STATE": "Goa", "CEN_2001": "3002000300028600", "NAME": "Tiloi", "DISTRICT": "South Goa", "ORIG_FID": 372 }, "geometry": { "type": "Point", "coordinates": [ 74.019029999534894, 15.129849757360489 ] } },
{ "type": "Feature", "properties": { "OBJECTID": 373, "TYPE": "Village", "SUB_DIST": "Sanguem", "STATE": "Goa", "CEN_2001": "3002000400034600", "NAME": "Curpem", "DISTRICT": "South Goa", "ORIG_FID": 373 }, "geometry": { "type": "Point", "coordinates": [ 74.175659156544896, 15.128183189502636 ] } },
{ "type": "Feature", "properties": { "OBJECTID": 374, "TYPE": "Village", "SUB_DIST": "Quepem", "STATE": "Goa", "CEN_2001": "3002000300028300", "NAME": "Quitol", "DISTRICT": "South Goa", "ORIG_FID": 374 }, "geometry": { "type": "Point", "coordinates": [ 73.962847769409109, 15.13300482641165 ] } },
{ "type": "Feature", "properties": { "OBJECTID": 375, "TYPE": "Village", "SUB_DIST": "Sanguem", "STATE": "Goa", "CEN_2001": "3002000400034800", "NAME": "Sigonem", "DISTRICT": "South Goa", "ORIG_FID": 375 }, "geometry": { "type": "Point", "coordinates": [ 74.258304999975849, 15.1180402883287 ] } },
{ "type": "Feature", "properties": { "OBJECTID": 376, "TYPE": "Village", "SUB_DIST": "Quepem", "STATE": "Goa", "CEN_2001": "3002000300028700", "NAME": "Bendordem", "DISTRICT": "South Goa", "ORIG_FID": 376 }, "geometry": { "type": "Point", "coordinates": [ 74.043296339754306, 15.131811292956854 ] } },
{ "type": "Feature", "properties": { "OBJECTID": 377, "TYPE": "Village", "SUB_DIST": "Quepem", "STATE": "Goa", "CEN_2001": "3002000300028900", "NAME": "Maina", "DISTRICT": "South Goa", "ORIG_FID": 377 }, "geometry": { "type": "Point", "coordinates": [ 74.085858186406256, 15.116011562583594 ] } },
{ "type": "Feature", "properties": { "OBJECTID": 378, "TYPE": "Village", "SUB_DIST": "Quepem", "STATE": "Goa", "CEN_2001": "3002000300028500", "NAME": "Morpila", "DISTRICT": "South Goa", "ORIG_FID": 378 }, "geometry": { "type": "Point", "coordinates": [ 74.000456336390869, 15.112388827182656 ] } },
{ "type": "Feature", "properties": { "OBJECTID": 379, "TYPE": "Village", "SUB_DIST": "Quepem", "STATE": "Goa", "CEN_2001": "3002000300028400", "NAME": "Naquerim", "DISTRICT": "South Goa", "ORIG_FID": 379 }, "geometry": { "type": "Point", "coordinates": [ 73.961116703972777, 15.109846175760424 ] } },
{ "type": "Feature", "properties": { "OBJECTID": 380, "TYPE": "Village", "SUB_DIST": "Quepem", "STATE": "Goa", "CEN_2001": "3002000300029000", "NAME": "Cordem", "DISTRICT": "South Goa", "ORIG_FID": 380 }, "geometry": { "type": "Point", "coordinates": [ 74.044772185687862, 15.113414728806731 ] } },
{ "type": "Feature", "properties": { "OBJECTID": 381, "TYPE": "Village", "SUB_DIST": "Quepem", "STATE": "Goa", "CEN_2001": "3002000300029700", "NAME": "Sulcorna", "DISTRICT": "South Goa", "ORIG_FID": 381 }, "geometry": { "type": "Point", "coordinates": [ 74.158979666178709, 15.104726635725683 ] } },
{ "type": "Feature", "properties": { "OBJECTID": 382, "TYPE": "Village", "SUB_DIST": "Quepem", "STATE": "Goa", "CEN_2001": "3002000300029600", "NAME": "Pirla", "DISTRICT": "South Goa", "ORIG_FID": 382 }, "geometry": { "type": "Point", "coordinates": [ 74.123121688914864, 15.101930101193261 ] } },
{ "type": "Feature", "properties": { "OBJECTID": 383, "TYPE": "Village", "SUB_DIST": "Sanguem", "STATE": "Goa", "CEN_2001": "3002000400034900", "NAME": "Netorli", "DISTRICT": "South Goa", "ORIG_FID": 383 }, "geometry": { "type": "Point", "coordinates": [ 74.233308881499738, 15.08468882952593 ] } },
{ "type": "Feature", "properties": { "OBJECTID": 384, "TYPE": "Village", "SUB_DIST": "Canacona", "STATE": "Goa", "CEN_2001": "3002000500035200", "NAME": "Cola", "DISTRICT": "South Goa", "ORIG_FID": 384 }, "geometry": { "type": "Point", "coordinates": [ 73.990137499945718, 15.076699183220796 ] } },
{ "type": "Feature", "properties": { "OBJECTID": 385, "TYPE": "Village", "SUB_DIST": "Sanguem", "STATE": "Goa", "CEN_2001": "3002000400034700", "NAME": "Vichundrem", "DISTRICT": "South Goa", "ORIG_FID": 385 }, "geometry": { "type": "Point", "coordinates": [ 74.191785148365966, 15.100356654536029 ] } },
{ "type": "Feature", "properties": { "OBJECTID": 386, "TYPE": "Village", "SUB_DIST": "Quepem", "STATE": "Goa", "CEN_2001": "3002000300029100", "NAME": "Padi", "DISTRICT": "South Goa", "ORIG_FID": 386 }, "geometry": { "type": "Point", "coordinates": [ 74.05237999963731, 15.091951667135788 ] } },
{ "type": "Feature", "properties": { "OBJECTID": 387, "TYPE": "Village", "SUB_DIST": "Quepem", "STATE": "Goa", "CEN_2001": "3002000300029200", "NAME": "Quedem", "DISTRICT": "South Goa", "ORIG_FID": 387 }, "geometry": { "type": "Point", "coordinates": [ 74.017241431446962, 15.088487655780739 ] } },
{ "type": "Feature", "properties": { "OBJECTID": 388, "TYPE": "Village", "SUB_DIST": "Quepem", "STATE": "Goa", "CEN_2001": "3002000300029400", "NAME": "Gocoldem", "DISTRICT": "South Goa", "ORIG_FID": 388 }, "geometry": { "type": "Point", "coordinates": [ 74.075354675078245, 15.078453718264541 ] } },
{ "type": "Feature", "properties": { "OBJECTID": 389, "TYPE": "Village", "SUB_DIST": "Sanguem", "STATE": "Goa", "CEN_2001": "3002000400035100", "NAME": "Verlem", "DISTRICT": "South Goa", "ORIG_FID": 389 }, "geometry": { "type": "Point", "coordinates": [ 74.262346760994262, 15.040153882895424 ] } },
{ "type": "Feature", "properties": { "OBJECTID": 390, "TYPE": "Village", "SUB_DIST": "Quepem", "STATE": "Goa", "CEN_2001": "3002000300029500", "NAME": "Quisconda", "DISTRICT": "South Goa", "ORIG_FID": 390 }, "geometry": { "type": "Point", "coordinates": [ 74.096681591082643, 15.068840640083522 ] } },
{ "type": "Feature", "properties": { "OBJECTID": 391, "TYPE": "Village", "SUB_DIST": "Quepem", "STATE": "Goa", "CEN_2001": "3002000300029900", "NAME": "Cazur", "DISTRICT": "South Goa", "ORIG_FID": 391 }, "geometry": { "type": "Point", "coordinates": [ 74.156235000045285, 15.076034514081584 ] } },
{ "type": "Feature", "properties": { "OBJECTID": 392, "TYPE": "Village", "SUB_DIST": "Quepem", "STATE": "Goa", "CEN_2001": "3002000300029800", "NAME": "Corla", "DISTRICT": "South Goa", "ORIG_FID": 392 }, "geometry": { "type": "Point", "coordinates": [ 74.124516430389008, 15.075629626705961 ] } },
{ "type": "Feature", "properties": { "OBJECTID": 393, "TYPE": "Village", "SUB_DIST": "Quepem", "STATE": "Goa", "CEN_2001": "3002000300030000", "NAME": "Mangal", "DISTRICT": "South Goa", "ORIG_FID": 393 }, "geometry": { "type": "Point", "coordinates": [ 74.180354123943744, 15.063933193462162 ] } },
{ "type": "Feature", "properties": { "OBJECTID": 394, "TYPE": "Village", "SUB_DIST": "Quepem", "STATE": "Goa", "CEN_2001": "3002000300029300", "NAME": "Barcem", "DISTRICT": "South Goa", "ORIG_FID": 394 }, "geometry": { "type": "Point", "coordinates": [ 74.042028652700196, 15.066221638917568 ] } },
{ "type": "Feature", "properties": { "OBJECTID": 395, "TYPE": "Village", "SUB_DIST": "Sanguem", "STATE": "Goa", "CEN_2001": "3002000400035000", "NAME": "Nundem", "DISTRICT": "South Goa", "ORIG_FID": 395 }, "geometry": { "type": "Point", "coordinates": [ 74.202644421602827, 15.053105533193843 ] } },
{ "type": "Feature", "properties": { "OBJECTID": 396, "TYPE": "Village", "SUB_DIST": "Canacona", "STATE": "Goa", "CEN_2001": "3002000500035500", "NAME": "Gaodongrem", "DISTRICT": "South Goa", "ORIG_FID": 396 }, "geometry": { "type": "Point", "coordinates": [ 74.140828593564777, 15.025922884933266 ] } },
{ "type": "Feature", "properties": { "OBJECTID": 397, "TYPE": "Village", "SUB_DIST": "Canacona", "STATE": "Goa", "CEN_2001": "3002000500035300", "NAME": "Agonda", "DISTRICT": "South Goa", "ORIG_FID": 397 }, "geometry": { "type": "Point", "coordinates": [ 74.001608514521365, 15.041638168966358 ] } },
{ "type": "Feature", "properties": { "OBJECTID": 398, "TYPE": "Village", "SUB_DIST": "Canacona", "STATE": "Goa", "CEN_2001": "3002000500035400", "NAME": "Canacona", "DISTRICT": "South Goa", "ORIG_FID": 398 }, "geometry": { "type": "Point", "coordinates": [ 74.064833285227962, 15.031106241759687 ] } },
{ "type": "Feature", "properties": { "OBJECTID": 399, "TYPE": "Village", "SUB_DIST": "Canacona", "STATE": "Goa", "CEN_2001": "3002000500035800", "NAME": "Cotigao", "DISTRICT": "South Goa", "ORIG_FID": 399 }, "geometry": { "type": "Point", "coordinates": [ 74.22360749978634, 14.993254758900036 ] } },
{ "type": "Feature", "properties": { "OBJECTID": 400, "TYPE": "Town", "SUB_DIST": "Canacona", "STATE": "Goa", "CEN_2001": "3002000540217000", "NAME": "Canacona", "DISTRICT": "South Goa", "ORIG_FID": 400 }, "geometry": { "type": "Point", "coordinates": [ 74.040064835523822, 15.00950631586386 ] } },
{ "type": "Feature", "properties": { "OBJECTID": 401, "TYPE": "Village", "SUB_DIST": "Canacona", "STATE": "Goa", "CEN_2001": "3002000500035600", "NAME": "Poinguinim", "DISTRICT": "South Goa", "ORIG_FID": 401 }, "geometry": { "type": "Point", "coordinates": [ 74.094581150699582, 14.981442601794697 ] } },
{ "type": "Feature", "properties": { "OBJECTID": 402, "TYPE": "Village", "SUB_DIST": "Canacona", "STATE": "Goa", "CEN_2001": "3002000500035700", "NAME": "Loliem", "DISTRICT": "South Goa", "ORIG_FID": 402 }, "geometry": { "type": "Point", "coordinates": [ 74.079760427701615, 14.935284227784962 ] } }
]
}
